[
  {
    "省": "河南",
    "市": "焦作",
    "县区": "解放区",
    "PoiID": "B018700THA",
    "name": "缝山公园",
    "class1": "风景名胜",
    "class2": "公园广场",
    "class3": "公园",
    "class4": null,
    "lon": 113.2297349051,
    "lat": 35.2644250733,
    "address": "塔北路与影视路交汇处",
    "固话": null,
    "tel": null
  },
  {
    "省": "河南",
    "市": "焦作",
    "县区": "解放区",
    "PoiID": "B0187003F5",
    "name": "人民公园",
    "class1": "风景名胜",
    "class2": "公园广场",
    "class3": "公园",
    "class4": null,
    "lon": 113.2287230831,
    "lat": 35.2489269389,
    "address": "太行路",
    "固话": null,
    "tel": null
  },
  {
    "省": "河南",
    "市": "焦作",
    "县区": "解放区",
    "PoiID": "B0187015KQ",
    "name": "焦作市基督教堂",
    "class1": "风景名胜",
    "class2": "风景名胜",
    "class3": "教堂",
    "class4": null,
    "lon": 113.2229252672,
    "lat": 35.2399472295,
    "address": "和平街90号",
    "固话": null,
    "tel": null
  },
  {
    "省": "河南",
    "市": "焦作",
    "县区": "解放区",
    "PoiID": "B018700V85",
    "name": "焦作清真寺",
    "class1": "风景名胜",
    "class2": "风景名胜",
    "class3": "回教寺",
    "class4": null,
    "lon": 113.2169937135,
    "lat": 35.2421729667,
    "address": "西寺街38号(焦作市国土资源局解放分局东北)",
    "固话": null,
    "tel": null
  },
  {
    "省": "河南",
    "市": "焦作",
    "县区": "解放区",
    "PoiID": "B0FFGO0HSE",
    "name": "英国福公司钱庄旧址",
    "class1": "风景名胜",
    "class2": "风景名胜",
    "class3": "风景名胜",
    "class4": null,
    "lon": 113.2201416265,
    "lat": 35.2429050427,
    "address": "新华中街73附近",
    "固话": null,
    "tel": null
  },
  {
    "省": "河南",
    "市": "焦作",
    "县区": "解放区",
    "PoiID": "B0FFF5R271",
    "name": "赛纳溪谷广场",
    "class1": "风景名胜",
    "class2": "公园广场",
    "class3": "城市广场",
    "class4": null,
    "lon": 113.2104905071,
    "lat": 35.2497645317,
    "address": "太行路与军民街交汇处261号",
    "固话": null,
    "tel": null
  },
  {
    "省": "河南",
    "市": "焦作",
    "县区": "解放区",
    "PoiID": "B0FFKG2VK4",
    "name": "闫河公园",
    "class1": "风景名胜",
    "class2": "公园广场",
    "class3": "公园",
    "class4": null,
    "lon": 113.2318730383,
    "lat": 35.2627117542,
    "address": "岭南大道南50米",
    "固话": null,
    "tel": null
  },
  {
    "省": "河南",
    "市": "焦作",
    "县区": "解放区",
    "PoiID": "B0187016KR",
    "name": "清真女寺",
    "class1": "风景名胜",
    "class2": "风景名胜",
    "class3": "回教寺",
    "class4": null,
    "lon": 113.2164650632,
    "lat": 35.2431774519,
    "address": "解放中路587号",
    "固话": null,
    "tel": null
  },
  {
    "省": "河南",
    "市": "焦作",
    "县区": "解放区",
    "PoiID": "B0FFFSA4AY",
    "name": "焦作市天主堂",
    "class1": "风景名胜",
    "class2": "风景名胜",
    "class3": "教堂",
    "class4": null,
    "lon": 113.2192340044,
    "lat": 35.2410681146,
    "address": "新华中街103号",
    "固话": null,
    "tel": null
  },
  {
    "省": "河南",
    "市": "焦作",
    "县区": "解放区",
    "PoiID": "B0FFLDKIKC",
    "name": "双拥广场",
    "class1": "风景名胜",
    "class2": "公园广场",
    "class3": "城市广场",
    "class4": null,
    "lon": 113.2238621907,
    "lat": 35.2471326901,
    "address": "民主中路43号附近",
    "固话": null,
    "tel": null
  },
  {
    "省": "河南",
    "市": "焦作",
    "县区": "解放区",
    "PoiID": "B01870042A",
    "name": "人民广场",
    "class1": "风景名胜",
    "class2": "公园广场",
    "class3": "城市广场",
    "class4": null,
    "lon": 113.2359825783,
    "lat": 35.2143479976,
    "address": "人民路479号",
    "固话": null,
    "tel": null
  },
  {
    "省": "河南",
    "市": "焦作",
    "县区": "解放区",
    "PoiID": "B0187003F3",
    "name": "月季公园",
    "class1": "风景名胜",
    "class2": "公园广场",
    "class3": "公园",
    "class4": null,
    "lon": 113.2147803825,
    "lat": 35.2329970653,
    "address": "果园路49号",
    "固话": "0391-2624455",
    "tel": null
  },
  {
    "省": "河南",
    "市": "焦作",
    "县区": "解放区",
    "PoiID": "B01870MY1M",
    "name": "焦作站北广场",
    "class1": "风景名胜",
    "class2": "公园广场",
    "class3": "城市广场",
    "class4": null,
    "lon": 113.2281624816,
    "lat": 35.2241786573,
    "address": "站前路",
    "固话": null,
    "tel": null
  },
  {
    "省": "河南",
    "市": "焦作",
    "县区": "解放区",
    "PoiID": "B0FFGO03JD",
    "name": "焦作站南广场",
    "class1": "风景名胜",
    "class2": "公园广场",
    "class3": "城市广场",
    "class4": null,
    "lon": 113.2284109653,
    "lat": 35.2210030444,
    "address": "民主南路与站南路交汇处西北150米",
    "固话": null,
    "tel": null
  },
  {
    "省": "河南",
    "市": "焦作",
    "县区": "解放区",
    "PoiID": "B0FFGLR4X1",
    "name": "火车站广场",
    "class1": "风景名胜",
    "class2": "公园广场",
    "class3": "城市广场",
    "class4": null,
    "lon": 113.2282775534,
    "lat": 35.2241047969,
    "address": "站前路129号西北方向170米",
    "固话": null,
    "tel": null
  },
  {
    "省": "河南",
    "市": "焦作",
    "县区": "解放区",
    "PoiID": "B0G21HA3TF",
    "name": "西王褚遗址",
    "class1": "风景名胜",
    "class2": "风景名胜",
    "class3": "风景名胜",
    "class4": null,
    "lon": 113.2148903601,
    "lat": 35.2159975414,
    "address": "南通路54号",
    "固话": null,
    "tel": null
  },
  {
    "省": "河南",
    "市": "焦作",
    "县区": "解放区",
    "PoiID": "B0FFKZEG16",
    "name": "阿弥陀佛",
    "class1": "风景名胜",
    "class2": "风景名胜",
    "class3": "风景名胜",
    "class4": null,
    "lon": 113.2110979886,
    "lat": 35.2065172582,
    "address": "温州商贸城三栋十八号",
    "固话": null,
    "tel": null
  },
  {
    "省": "河南",
    "市": "焦作",
    "县区": "解放区",
    "PoiID": "B0H6G6VGNB",
    "name": "王兰广旧居",
    "class1": "风景名胜",
    "class2": "风景名胜",
    "class3": "纪念馆",
    "class4": null,
    "lon": 113.2127490154,
    "lat": 35.215273044,
    "address": "普济路(西王褚学校西北侧约250米)",
    "固话": null,
    "tel": null
  },
  {
    "省": "河南",
    "市": "焦作",
    "县区": "解放区",
    "PoiID": "B0FFMHB8XM",
    "name": "南水北调纪念馆",
    "class1": "风景名胜",
    "class2": "风景名胜",
    "class3": "纪念馆",
    "class4": null,
    "lon": 113.2105987497,
    "lat": 35.2121948206,
    "address": "普济路与人民路交叉路口往西北约200米",
    "固话": null,
    "tel": null
  },
  {
    "省": "河南",
    "市": "焦作",
    "县区": "解放区",
    "PoiID": "B0G0HKG6U9",
    "name": "花卉啤酒广场",
    "class1": "风景名胜",
    "class2": "公园广场",
    "class3": "城市广场",
    "class4": null,
    "lon": 113.2240247527,
    "lat": 35.2064532749,
    "address": "丰收路120号北90米",
    "固话": null,
    "tel": null
  },
  {
    "省": "河南",
    "市": "焦作",
    "县区": "解放区",
    "PoiID": "B0FFF5R2WF",
    "name": "东王褚比干财神庙",
    "class1": "风景名胜",
    "class2": "风景名胜",
    "class3": "寺庙道观",
    "class4": null,
    "lon": 113.2224066673,
    "lat": 35.2142370443,
    "address": "新安路附近",
    "固话": null,
    "tel": null
  },
  {
    "省": "河南",
    "市": "焦作",
    "县区": "解放区",
    "PoiID": "B0FFHP6EXS",
    "name": "艺步艺考涛子影视表演",
    "class1": "风景名胜",
    "class2": "风景名胜相关",
    "class3": "旅游景点",
    "class4": null,
    "lon": 113.2260190779,
    "lat": 35.243529761,
    "address": "民主路民主写字楼五楼",
    "固话": null,
    "tel": null
  },
  {
    "省": "河南",
    "市": "焦作",
    "县区": "解放区",
    "PoiID": "B0G3TUOQQE",
    "name": "卢太关节堂",
    "class1": "风景名胜",
    "class2": "风景名胜相关",
    "class3": "旅游景点",
    "class4": null,
    "lon": 113.234057223,
    "lat": 35.2405317237,
    "address": null,
    "固话": null,
    "tel": null
  },
  {
    "省": "河南",
    "市": "焦作",
    "县区": "解放区",
    "PoiID": "B0FFGY5735",
    "name": "玻璃球",
    "class1": "风景名胜",
    "class2": "风景名胜相关",
    "class3": "旅游景点",
    "class4": null,
    "lon": 113.2161458607,
    "lat": 35.2419963311,
    "address": "果园路与立新街交叉口东北50米",
    "固话": null,
    "tel": null
  },
  {
    "省": "河南",
    "市": "焦作",
    "县区": "解放区",
    "PoiID": "B0G0D7B8JW",
    "name": "中州社区焦作市城区法治文化广场",
    "class1": "风景名胜",
    "class2": "公园广场",
    "class3": "城市广场",
    "class4": null,
    "lon": 113.2317813709,
    "lat": 35.2318865927,
    "address": null,
    "固话": null,
    "tel": null
  },
  {
    "省": "河南",
    "市": "焦作",
    "县区": "解放区",
    "PoiID": "B0HBRX7UVB",
    "name": "太极之根",
    "class1": "风景名胜",
    "class2": "风景名胜相关",
    "class3": "旅游景点",
    "class4": null,
    "lon": 113.244119749,
    "lat": 35.2060944803,
    "address": "丰收路(焦作中旅银行西侧约50米)",
    "固话": null,
    "tel": null
  },
  {
    "省": "河南",
    "市": "焦作",
    "县区": "解放区",
    "PoiID": "B0G3FULHT8",
    "name": "玉玄宫",
    "class1": "风景名胜",
    "class2": "风景名胜相关",
    "class3": "旅游景点",
    "class4": null,
    "lon": 113.2356112068,
    "lat": 35.2261507953,
    "address": "公路管理局",
    "固话": null,
    "tel": 13782738260.0
  },
  {
    "省": "河南",
    "市": "焦作",
    "县区": "解放区",
    "PoiID": "B0G21Y7T9Q",
    "name": "南湾湖",
    "class1": "风景名胜",
    "class2": "风景名胜相关",
    "class3": "旅游景点",
    "class4": null,
    "lon": 113.2229136394,
    "lat": 35.2089848473,
    "address": null,
    "固话": null,
    "tel": null
  },
  {
    "省": "河南",
    "市": "焦作",
    "县区": "解放区",
    "PoiID": "B0FFLH1YWX",
    "name": "焦作大沙河玻璃栈道",
    "class1": "风景名胜",
    "class2": "风景名胜相关",
    "class3": "旅游景点",
    "class4": null,
    "lon": 113.2365742783,
    "lat": 35.1631688351,
    "address": null,
    "固话": null,
    "tel": null
  },
  {
    "省": "河南",
    "市": "焦作",
    "县区": "解放区",
    "PoiID": "B0G2GUMHLT",
    "name": "人民公园-海洋馆",
    "class1": "风景名胜",
    "class2": "公园广场",
    "class3": "水族馆",
    "class4": null,
    "lon": 113.2288771008,
    "lat": 35.249510438,
    "address": "人民公园内",
    "固话": null,
    "tel": null
  },
  {
    "省": "河南",
    "市": "焦作",
    "县区": "解放区",
    "PoiID": "B0FFKWMNZE",
    "name": "人民公园-地宫",
    "class1": "风景名胜",
    "class2": "风景名胜相关",
    "class3": "旅游景点",
    "class4": null,
    "lon": 113.2253050775,
    "lat": 35.2483564563,
    "address": "太行中路与民主中路交叉口东南",
    "固话": null,
    "tel": null
  },
  {
    "省": "河南",
    "市": "焦作",
    "县区": "解放区",
    "PoiID": "B0FFKV9UWY",
    "name": "人民公园-蹦极",
    "class1": "风景名胜",
    "class2": "风景名胜相关",
    "class3": "旅游景点",
    "class4": null,
    "lon": 113.224791777,
    "lat": 35.2478755933,
    "address": "太行中路与民主中路交叉口东南",
    "固话": null,
    "tel": null
  },
  {
    "省": "河南",
    "市": "焦作",
    "县区": "解放区",
    "PoiID": "B0FFKR2Z1G",
    "name": "人民公园-摩天轮",
    "class1": "风景名胜",
    "class2": "风景名胜相关",
    "class3": "旅游景点",
    "class4": null,
    "lon": 113.2257474129,
    "lat": 35.2479911113,
    "address": "太行路与民主中路交叉口人民公园",
    "固话": null,
    "tel": null
  },
  {
    "省": "河南",
    "市": "焦作",
    "县区": "解放区",
    "PoiID": "B0FFHF19CH",
    "name": "缝山针公园",
    "class1": "风景名胜",
    "class2": "风景名胜相关",
    "class3": "旅游景点",
    "class4": null,
    "lon": 113.2313127656,
    "lat": 35.2631151126,
    "address": "岭南大道北50米",
    "固话": null,
    "tel": null
  },
  {
    "省": "河南",
    "市": "焦作",
    "县区": "解放区",
    "PoiID": "B0FFGG2HNI",
    "name": "人民公园-海底世界",
    "class1": "风景名胜",
    "class2": "公园广场",
    "class3": "水族馆",
    "class4": null,
    "lon": 113.2288470934,
    "lat": 35.2494334989,
    "address": "太行路人民公园内",
    "固话": null,
    "tel": 15036540060.0
  },
  {
    "省": "河南",
    "市": "焦作",
    "县区": "解放区",
    "PoiID": "B0FFH8EQX0",
    "name": "南塔楼",
    "class1": "风景名胜",
    "class2": "风景名胜相关",
    "class3": "旅游景点",
    "class4": null,
    "lon": 113.2275725734,
    "lat": 35.2294229736,
    "address": "民主南路17-8号",
    "固话": null,
    "tel": null
  },
  {
    "省": "河南",
    "市": "焦作",
    "县区": "解放区",
    "PoiID": "B018700HK0",
    "name": "焦作影视城",
    "class1": "风景名胜",
    "class2": "风景名胜",
    "class3": "国家级景点",
    "class4": null,
    "lon": 113.2018053827,
    "lat": 35.267854547,
    "address": "普济路北端",
    "固话": "0391-2903168",
    "tel": null
  },
  {
    "省": "河南",
    "市": "焦作",
    "县区": "解放区",
    "PoiID": "B018700TGX",
    "name": "怪坡园",
    "class1": "风景名胜",
    "class2": "风景名胜",
    "class3": "风景名胜",
    "class4": null,
    "lon": 113.1913728575,
    "lat": 35.267981645,
    "address": "西环路影视城西北1公里处",
    "固话": null,
    "tel": null
  },
  {
    "省": "河南",
    "市": "焦作",
    "县区": "解放区",
    "PoiID": "B0FFJ2XNNM",
    "name": "普济公园",
    "class1": "风景名胜",
    "class2": "公园广场",
    "class3": "公园",
    "class4": null,
    "lon": 113.2009276759,
    "lat": 35.2618991851,
    "address": "普济路影视城西邻",
    "固话": null,
    "tel": null
  },
  {
    "省": "河南",
    "市": "焦作",
    "县区": "解放区",
    "PoiID": "B0FFKEJMEK",
    "name": "众盛游园",
    "class1": "风景名胜",
    "class2": "公园广场",
    "class3": "公园",
    "class4": null,
    "lon": 113.1861003009,
    "lat": 35.2382834217,
    "address": "解放西路北50米",
    "固话": null,
    "tel": null
  },
  {
    "省": "河南",
    "市": "焦作",
    "县区": "解放区",
    "PoiID": "B0FFLK7H8G",
    "name": "孙真庙",
    "class1": "风景名胜",
    "class2": "风景名胜",
    "class3": "寺庙道观",
    "class4": null,
    "lon": 113.168062367,
    "lat": 35.2602307421,
    "address": null,
    "固话": null,
    "tel": null
  },
  {
    "省": "河南",
    "市": "焦作",
    "县区": "解放区",
    "PoiID": "B0187016EU",
    "name": "焦作森林动物园",
    "class1": "风景名胜",
    "class2": "公园广场",
    "class3": "动物园",
    "class4": null,
    "lon": 113.1851048456,
    "lat": 35.2250081858,
    "address": "牧野路",
    "固话": null,
    "tel": null
  },
  {
    "省": "河南",
    "市": "焦作",
    "县区": "解放区",
    "PoiID": "B0187015CM",
    "name": "卢氏祖祠",
    "class1": "风景名胜",
    "class2": "风景名胜",
    "class3": "寺庙道观",
    "class4": null,
    "lon": 113.1893384754,
    "lat": 35.2193062022,
    "address": "建设路(龙杰大酒店西北侧约150米)",
    "固话": null,
    "tel": null
  },
  {
    "省": "河南",
    "市": "焦作",
    "县区": "解放区",
    "PoiID": "B0187016U9",
    "name": "中心坛",
    "class1": "风景名胜",
    "class2": "风景名胜",
    "class3": "风景名胜",
    "class4": null,
    "lon": 113.1893303782,
    "lat": 35.2200564195,
    "address": "卢氏祖祠附近",
    "固话": null,
    "tel": null
  },
  {
    "省": "河南",
    "市": "焦作",
    "县区": "解放区",
    "PoiID": "B0FFIT9TGU",
    "name": "灵泉寺",
    "class1": "风景名胜",
    "class2": "风景名胜相关",
    "class3": "旅游景点",
    "class4": null,
    "lon": 113.1914822457,
    "lat": 35.1749679519,
    "address": "阳庙镇良种场东南300米",
    "固话": null,
    "tel": null
  },
  {
    "省": "河南",
    "市": "焦作",
    "县区": "解放区",
    "PoiID": "B0FFHGT8XD",
    "name": "士林观音庙",
    "class1": "风景名胜",
    "class2": "风景名胜",
    "class3": "寺庙道观",
    "class4": null,
    "lon": 113.2050398416,
    "lat": 35.2162218521,
    "address": "焦武路东50米",
    "固话": null,
    "tel": null
  },
  {
    "省": "河南",
    "市": "焦作",
    "县区": "解放区",
    "PoiID": "B0FFI8XSZA",
    "name": "焦作影视城-灭火水井",
    "class1": "风景名胜",
    "class2": "风景名胜相关",
    "class3": "旅游景点",
    "class4": null,
    "lon": 113.2017174361,
    "lat": 35.2661341164,
    "address": "影视路焦作影视城内",
    "固话": null,
    "tel": null
  },
  {
    "省": "河南",
    "市": "焦作",
    "县区": "解放区",
    "PoiID": "B0FFGRMYNY",
    "name": "东周生活用具展",
    "class1": "风景名胜",
    "class2": "风景名胜相关",
    "class3": "旅游景点",
    "class4": null,
    "lon": 113.2012674857,
    "lat": 35.2684611997,
    "address": "影视路焦作影视城内",
    "固话": null,
    "tel": null
  },
  {
    "省": "河南",
    "市": "焦作",
    "县区": "解放区",
    "PoiID": "B0FFJ96E28",
    "name": "焦作影视城-周王宫宫门城墙",
    "class1": "风景名胜",
    "class2": "风景名胜",
    "class3": "风景名胜",
    "class4": null,
    "lon": 113.2020760767,
    "lat": 35.2653064291,
    "address": "影视路焦作影视城内",
    "固话": null,
    "tel": null
  },
  {
    "省": "河南",
    "市": "焦作",
    "县区": "解放区",
    "PoiID": "B0FFIKVV81",
    "name": "焦作影视城-玄武",
    "class1": "风景名胜",
    "class2": "风景名胜相关",
    "class3": "旅游景点",
    "class4": null,
    "lon": 113.2026610977,
    "lat": 35.2640984245,
    "address": "影视路焦作影视城内",
    "固话": null,
    "tel": null
  },
  {
    "省": "河南",
    "市": "焦作",
    "县区": "解放区",
    "PoiID": "B0FFIWOX70",
    "name": "焦作影视城-灵台",
    "class1": "风景名胜",
    "class2": "风景名胜相关",
    "class3": "旅游景点",
    "class4": null,
    "lon": 113.2032766416,
    "lat": 35.2675648493,
    "address": "影视路焦作影视城内",
    "固话": null,
    "tel": null
  },
  {
    "省": "河南",
    "市": "焦作",
    "县区": "解放区",
    "PoiID": "B0FFGRMYO4",
    "name": "焦作影视城-一鸣惊人",
    "class1": "风景名胜",
    "class2": "风景名胜相关",
    "class3": "旅游景点",
    "class4": null,
    "lon": 113.1992872629,
    "lat": 35.2693085396,
    "address": "影视路焦作影视城内",
    "固话": null,
    "tel": null
  },
  {
    "省": "河南",
    "市": "焦作",
    "县区": "解放区",
    "PoiID": "B0FFIVU2NX",
    "name": "焦作影视城-亭",
    "class1": "风景名胜",
    "class2": "风景名胜相关",
    "class3": "旅游景点",
    "class4": null,
    "lon": 113.2005313218,
    "lat": 35.2685850379,
    "address": "影视路焦作影视城内",
    "固话": null,
    "tel": null
  },
  {
    "省": "河南",
    "市": "焦作",
    "县区": "解放区",
    "PoiID": "B0FFIZO9RS",
    "name": "焦作影视城-白虎",
    "class1": "风景名胜",
    "class2": "风景名胜相关",
    "class3": "旅游景点",
    "class4": null,
    "lon": 113.2026701572,
    "lat": 35.2636798497,
    "address": "影视路焦作影视城内",
    "固话": null,
    "tel": null
  },
  {
    "省": "河南",
    "市": "焦作",
    "县区": "解放区",
    "PoiID": "B0FFIZNGG2",
    "name": "舒心阁",
    "class1": "风景名胜",
    "class2": "风景名胜相关",
    "class3": "旅游景点",
    "class4": null,
    "lon": 113.2023882066,
    "lat": 35.2684587595,
    "address": "影视路焦作影视城内",
    "固话": null,
    "tel": null
  },
  {
    "省": "河南",
    "市": "焦作",
    "县区": "解放区",
    "PoiID": "B0FFIZKNUQ",
    "name": "焦作影视城-四不像",
    "class1": "风景名胜",
    "class2": "风景名胜相关",
    "class3": "旅游景点",
    "class4": null,
    "lon": 113.2020230522,
    "lat": 35.2647898646,
    "address": "影视路焦作影视城内",
    "固话": null,
    "tel": null
  },
  {
    "省": "河南",
    "市": "焦作",
    "县区": "解放区",
    "PoiID": "B0FFIZKF8T",
    "name": "焦作影视城-接引殿",
    "class1": "风景名胜",
    "class2": "风景名胜相关",
    "class3": "旅游景点",
    "class4": null,
    "lon": 113.2015324843,
    "lat": 35.2722168899,
    "address": "影视路焦作影视城内",
    "固话": null,
    "tel": null
  },
  {
    "省": "河南",
    "市": "焦作",
    "县区": "解放区",
    "PoiID": "B0FFIABRZT",
    "name": "奇幻森林",
    "class1": "风景名胜",
    "class2": "风景名胜相关",
    "class3": "旅游景点",
    "class4": null,
    "lon": 113.1996371233,
    "lat": 35.266578728,
    "address": "影视路焦作影视城内",
    "固话": null,
    "tel": null
  },
  {
    "省": "河南",
    "市": "焦作",
    "县区": "解放区",
    "PoiID": "B0FFI8UG1L",
    "name": "楚王宫区-休息长廊",
    "class1": "风景名胜",
    "class2": "风景名胜相关",
    "class3": "旅游景点",
    "class4": null,
    "lon": 113.1989537969,
    "lat": 35.2686516985,
    "address": "影视路焦作影视城内",
    "固话": null,
    "tel": null
  },
  {
    "省": "河南",
    "市": "焦作",
    "县区": "解放区",
    "PoiID": "B0FFI8O6L8",
    "name": "焦作影视城-大雄宝殿",
    "class1": "风景名胜",
    "class2": "风景名胜相关",
    "class3": "旅游景点",
    "class4": null,
    "lon": 113.2015564981,
    "lat": 35.2724287162,
    "address": "影视路焦作影视城内",
    "固话": null,
    "tel": null
  },
  {
    "省": "河南",
    "市": "焦作",
    "县区": "解放区",
    "PoiID": "B0FFI8LH1O",
    "name": "观音殿",
    "class1": "风景名胜",
    "class2": "风景名胜",
    "class3": "寺庙道观",
    "class4": null,
    "lon": 113.2017388003,
    "lat": 35.2722341607,
    "address": "影视路焦作影视城内",
    "固话": null,
    "tel": null
  },
  {
    "省": "河南",
    "市": "焦作",
    "县区": "解放区",
    "PoiID": "B0FFGI9Z2H",
    "name": "焦作影视城-生态步道",
    "class1": "风景名胜",
    "class2": "风景名胜相关",
    "class3": "旅游景点",
    "class4": null,
    "lon": 113.2040665651,
    "lat": 35.2698007142,
    "address": "焦作影视城",
    "固话": null,
    "tel": null
  },
  {
    "省": "河南",
    "市": "焦作",
    "县区": "解放区",
    "PoiID": "B0FFGDWXKH",
    "name": "焦作影视城-玉带桥",
    "class1": "风景名胜",
    "class2": "风景名胜",
    "class3": "观景点",
    "class4": null,
    "lon": 113.2022373558,
    "lat": 35.2650039498,
    "address": "焦作影视城",
    "固话": null,
    "tel": null
  },
  {
    "省": "河南",
    "市": "焦作",
    "县区": "解放区",
    "PoiID": "B0FFGDVJEM",
    "name": "焦作影视城-眼睛湖",
    "class1": "风景名胜",
    "class2": "风景名胜相关",
    "class3": "旅游景点",
    "class4": null,
    "lon": 113.2026960617,
    "lat": 35.2649086736,
    "address": "焦作影视城",
    "固话": null,
    "tel": null
  },
  {
    "省": "河南",
    "市": "焦作",
    "县区": "解放区",
    "PoiID": "B0FFGDVJEC",
    "name": "焦作影视城-太华殿",
    "class1": "风景名胜",
    "class2": "风景名胜相关",
    "class3": "旅游景点",
    "class4": null,
    "lon": 113.1993954644,
    "lat": 35.2690569435,
    "address": "焦作影视城",
    "固话": null,
    "tel": null
  },
  {
    "省": "河南",
    "市": "焦作",
    "县区": "解放区",
    "PoiID": "B0FFGDVCKR",
    "name": "焦作影视城-牛头院",
    "class1": "风景名胜",
    "class2": "风景名胜相关",
    "class3": "旅游景点",
    "class4": null,
    "lon": 113.2013676023,
    "lat": 35.2688139938,
    "address": "焦作影视城",
    "固话": null,
    "tel": null
  },
  {
    "省": "河南",
    "市": "焦作",
    "县区": "解放区",
    "PoiID": "B0FFGDVCKO",
    "name": "焦作影视城-太子殿",
    "class1": "风景名胜",
    "class2": "风景名胜相关",
    "class3": "旅游景点",
    "class4": null,
    "lon": 113.1998271884,
    "lat": 35.2687528656,
    "address": "焦作影视城",
    "固话": null,
    "tel": null
  },
  {
    "省": "河南",
    "市": "焦作",
    "县区": "解放区",
    "PoiID": "B0FFGDUCWA",
    "name": "焦作影视城-东配殿",
    "class1": "风景名胜",
    "class2": "风景名胜相关",
    "class3": "旅游景点",
    "class4": null,
    "lon": 113.1994134874,
    "lat": 35.2691109166,
    "address": "焦作影视城",
    "固话": null,
    "tel": null
  },
  {
    "省": "河南",
    "市": "焦作",
    "县区": "解放区",
    "PoiID": "B0FFGDKTWA",
    "name": "焦作影视城-楚王宫",
    "class1": "风景名胜",
    "class2": "风景名胜相关",
    "class3": "旅游景点",
    "class4": null,
    "lon": 113.1992953059,
    "lat": 35.2690348198,
    "address": "焦作影视城",
    "固话": null,
    "tel": null
  },
  {
    "省": "河南",
    "市": "焦作",
    "县区": "解放区",
    "PoiID": "B0FFGDKTJB",
    "name": "焦作影视城-周王宫",
    "class1": "风景名胜",
    "class2": "风景名胜相关",
    "class3": "旅游景点",
    "class4": null,
    "lon": 113.2023083715,
    "lat": 35.2658472172,
    "address": "西环路北端焦作影视城",
    "固话": null,
    "tel": null
  },
  {
    "省": "河南",
    "市": "焦作",
    "县区": "解放区",
    "PoiID": "B0FFGDKS1C",
    "name": "焦作影视城-琵琶湖",
    "class1": "风景名胜",
    "class2": "风景名胜相关",
    "class3": "旅游景点",
    "class4": null,
    "lon": 113.1992363504,
    "lat": 35.2677629831,
    "address": "影视路焦作影视城内",
    "固话": null,
    "tel": null
  },
  {
    "省": "河南",
    "市": "焦作",
    "县区": "解放区",
    "PoiID": "B0FFGDKRFA",
    "name": "焦作影视城-周王宫大殿",
    "class1": "风景名胜",
    "class2": "风景名胜相关",
    "class3": "旅游景点",
    "class4": null,
    "lon": 113.2022863046,
    "lat": 35.2661508879,
    "address": "焦作影视城",
    "固话": null,
    "tel": null
  },
  {
    "省": "河南",
    "市": "焦作",
    "县区": "解放区",
    "PoiID": "B0FFGDKRF8",
    "name": "焦作影视城-圣佛寺",
    "class1": "风景名胜",
    "class2": "风景名胜相关",
    "class3": "旅游景点",
    "class4": null,
    "lon": 113.2017127266,
    "lat": 35.2725408244,
    "address": "焦作影视城",
    "固话": null,
    "tel": null
  },
  {
    "省": "河南",
    "市": "焦作",
    "县区": "解放区",
    "PoiID": "B0FFGDKPJF",
    "name": "焦作影视城-三皇像",
    "class1": "风景名胜",
    "class2": "风景名胜相关",
    "class3": "旅游景点",
    "class4": null,
    "lon": 113.2022404588,
    "lat": 35.2641068383,
    "address": "岭南大道焦作影视城",
    "固话": null,
    "tel": null
  },
  {
    "省": "河南",
    "市": "焦作",
    "县区": "解放区",
    "PoiID": "B0FFGDKPFU",
    "name": "焦作影视城-四神兽",
    "class1": "风景名胜",
    "class2": "风景名胜相关",
    "class3": "旅游景点",
    "class4": null,
    "lon": 113.2022385683,
    "lat": 35.263081847,
    "address": "岭南大道焦作影视城",
    "固话": null,
    "tel": null
  },
  {
    "省": "河南",
    "市": "焦作",
    "县区": "解放区",
    "PoiID": "B0FFGDKM1M",
    "name": "焦作影视城-楚王宫大殿",
    "class1": "风景名胜",
    "class2": "风景名胜相关",
    "class3": "旅游景点",
    "class4": null,
    "lon": 113.1993313538,
    "lat": 35.2691257829,
    "address": "焦作影视城",
    "固话": null,
    "tel": null
  },
  {
    "省": "河南",
    "市": "焦作",
    "县区": "解放区",
    "PoiID": "B0FFGDKM1L",
    "name": "焦作影视城-跌水台",
    "class1": "风景名胜",
    "class2": "风景名胜相关",
    "class3": "旅游景点",
    "class4": null,
    "lon": 113.2022784695,
    "lat": 35.2645374662,
    "address": "焦作影视城",
    "固话": null,
    "tel": null
  },
  {
    "省": "河南",
    "市": "焦作",
    "县区": "解放区",
    "PoiID": "B0FFGDKJ8A",
    "name": "焦作影视城-禹王庙",
    "class1": "风景名胜",
    "class2": "风景名胜",
    "class3": "寺庙道观",
    "class4": null,
    "lon": 113.2027957881,
    "lat": 35.2687770055,
    "address": "焦作影视城",
    "固话": null,
    "tel": null
  },
  {
    "省": "河南",
    "市": "焦作",
    "县区": "解放区",
    "PoiID": "B0FFGDKJ1D",
    "name": "焦作影视城-文化广场",
    "class1": "风景名胜",
    "class2": "公园广场",
    "class3": "公园广场",
    "class4": null,
    "lon": 113.2023677812,
    "lat": 35.2629321727,
    "address": "焦作影视城",
    "固话": null,
    "tel": null
  },
  {
    "省": "河南",
    "市": "焦作",
    "县区": "中站区",
    "PoiID": "B0G0L9JNIE",
    "name": "许河事件纪念碑",
    "class1": "风景名胜",
    "class2": "风景名胜",
    "class3": "风景名胜",
    "class4": null,
    "lon": 113.1676922889,
    "lat": 35.2901888358,
    "address": "许河桥",
    "固话": null,
    "tel": null
  },
  {
    "省": "河南",
    "市": "焦作",
    "县区": "中站区",
    "PoiID": "B0G0FRASNK",
    "name": "太行八英纪念馆",
    "class1": "风景名胜",
    "class2": "风景名胜",
    "class3": "纪念馆",
    "class4": null,
    "lon": 113.2069934539,
    "lat": 35.3178415469,
    "address": "八英广场",
    "固话": null,
    "tel": null
  },
  {
    "省": "河南",
    "市": "焦作",
    "县区": "中站区",
    "PoiID": "B0187003FC",
    "name": "盘古洞",
    "class1": "风景名胜",
    "class2": "风景名胜",
    "class3": "风景名胜",
    "class4": null,
    "lon": 113.18037572,
    "lat": 35.3415672863,
    "address": "七贤镇云台山风景区内",
    "固话": null,
    "tel": null
  },
  {
    "省": "河南",
    "市": "焦作",
    "县区": "中站区",
    "PoiID": "B0FFKWSEP2",
    "name": "窄门峡谷",
    "class1": "风景名胜",
    "class2": "风景名胜相关",
    "class3": "旅游景点",
    "class4": null,
    "lon": 113.2074059971,
    "lat": 35.3180278869,
    "address": null,
    "固话": null,
    "tel": null
  },
  {
    "省": "河南",
    "市": "焦作",
    "县区": "中站区",
    "PoiID": "B018700406",
    "name": "许衡墓",
    "class1": "风景名胜",
    "class2": "风景名胜",
    "class3": "风景名胜",
    "class4": null,
    "lon": 113.1764829717,
    "lat": 35.2314482422,
    "address": "焦克路",
    "固话": "0391-3992511",
    "tel": null
  },
  {
    "省": "河南",
    "市": "焦作",
    "县区": "中站区",
    "PoiID": "B018700UAN",
    "name": "许衡广场",
    "class1": "风景名胜",
    "class2": "公园广场",
    "class3": "城市广场",
    "class4": null,
    "lon": 113.174054334,
    "lat": 35.2373837614,
    "address": "紫荆路与解放西路交叉口西150米",
    "固话": null,
    "tel": null
  },
  {
    "省": "河南",
    "市": "焦作",
    "县区": "中站区",
    "PoiID": "B018700UA4",
    "name": "许衡文化公园",
    "class1": "风景名胜",
    "class2": "公园广场",
    "class3": "公园",
    "class4": null,
    "lon": 113.1757039766,
    "lat": 35.2351001112,
    "address": "政府西200米",
    "固话": null,
    "tel": null
  },
  {
    "省": "河南",
    "市": "焦作",
    "县区": "中站区",
    "PoiID": "B0FFLK4Q58",
    "name": "老爷庙",
    "class1": "风景名胜",
    "class2": "风景名胜",
    "class3": "寺庙道观",
    "class4": null,
    "lon": 113.1608904278,
    "lat": 35.2600844339,
    "address": "怡光路",
    "固话": null,
    "tel": null
  },
  {
    "省": "河南",
    "市": "焦作",
    "县区": "中站区",
    "PoiID": "B0FFGKMOM8",
    "name": "早商府城遗址",
    "class1": "风景名胜",
    "class2": "风景名胜",
    "class3": "风景名胜",
    "class4": null,
    "lon": 113.1888565223,
    "lat": 35.2015906947,
    "address": "府城村",
    "固话": null,
    "tel": null
  },
  {
    "省": "河南",
    "市": "焦作",
    "县区": "中站区",
    "PoiID": "B0FFLAA4IW",
    "name": "乡贤王公祠",
    "class1": "风景名胜",
    "class2": "风景名胜",
    "class3": "风景名胜",
    "class4": null,
    "lon": 113.1920261356,
    "lat": 35.1940547511,
    "address": null,
    "固话": null,
    "tel": null
  },
  {
    "省": "河南",
    "市": "焦作",
    "县区": "中站区",
    "PoiID": "B0FFL1A9AJ",
    "name": "府城王家祠堂",
    "class1": "风景名胜",
    "class2": "风景名胜",
    "class3": "风景名胜",
    "class4": null,
    "lon": 113.1920000892,
    "lat": 35.1940517123,
    "address": null,
    "固话": null,
    "tel": null
  },
  {
    "省": "河南",
    "市": "焦作",
    "县区": "中站区",
    "PoiID": "B0FFKEKMI7",
    "name": "李封天目瓷窑遗址",
    "class1": "风景名胜",
    "class2": "风景名胜",
    "class3": "风景名胜",
    "class4": null,
    "lon": 113.1633480064,
    "lat": 35.2467862812,
    "address": "怡光路东50米",
    "固话": null,
    "tel": null
  },
  {
    "省": "河南",
    "市": "焦作",
    "县区": "中站区",
    "PoiID": "B0FFG652GH",
    "name": "基督教堂",
    "class1": "风景名胜",
    "class2": "风景名胜",
    "class3": "教堂",
    "class4": null,
    "lon": 113.1641387063,
    "lat": 35.2372543562,
    "address": "怡光路96号(鑫鑫花园东)",
    "固话": null,
    "tel": null
  },
  {
    "省": "河南",
    "市": "焦作",
    "县区": "中站区",
    "PoiID": "B018700V89",
    "name": "清真寺(造店)",
    "class1": "风景名胜",
    "class2": "风景名胜",
    "class3": "回教寺",
    "class4": null,
    "lon": 113.1726595098,
    "lat": 35.2004720374,
    "address": "府城街道丰收路清真寺东南门",
    "固话": null,
    "tel": null
  },
  {
    "省": "河南",
    "市": "焦作",
    "县区": "中站区",
    "PoiID": "B018700V8G",
    "name": "王启心烈士纪念碑",
    "class1": "风景名胜",
    "class2": "风景名胜",
    "class3": "风景名胜",
    "class4": null,
    "lon": 113.1996207179,
    "lat": 35.1969623416,
    "address": "018县道西50米",
    "固话": null,
    "tel": null
  },
  {
    "省": "河南",
    "市": "焦作",
    "县区": "中站区",
    "PoiID": "B0HBYOJDE6",
    "name": "太极故里",
    "class1": "风景名胜",
    "class2": "风景名胜",
    "class3": "纪念馆",
    "class4": null,
    "lon": 113.1604620105,
    "lat": 35.2558208614,
    "address": null,
    "固话": null,
    "tel": null
  },
  {
    "省": "河南",
    "市": "焦作",
    "县区": "中站区",
    "PoiID": "B0FFHIRMU9",
    "name": "淼雨文化广场",
    "class1": "风景名胜",
    "class2": "公园广场",
    "class3": "城市广场",
    "class4": null,
    "lon": 113.1617765404,
    "lat": 35.2576145394,
    "address": "影视路与怡光路交叉口北150米",
    "固话": null,
    "tel": null
  },
  {
    "省": "河南",
    "市": "焦作",
    "县区": "中站区",
    "PoiID": "B0187015O4",
    "name": "清真寺",
    "class1": "风景名胜",
    "class2": "风景名胜",
    "class3": "回教寺",
    "class4": null,
    "lon": 113.157975417,
    "lat": 35.2418971541,
    "address": "跃进路23号",
    "固话": null,
    "tel": null
  },
  {
    "省": "河南",
    "市": "焦作",
    "县区": "中站区",
    "PoiID": "B01870MWCZ",
    "name": "焦作市生态植物园",
    "class1": "风景名胜",
    "class2": "公园广场",
    "class3": "植物园",
    "class4": null,
    "lon": 113.1763028958,
    "lat": 35.2287916131,
    "address": "焦克路",
    "固话": null,
    "tel": null
  },
  {
    "省": "河南",
    "市": "焦作",
    "县区": "中站区",
    "PoiID": "B018700TDO",
    "name": "中共焦作城市工作委员会旧址",
    "class1": "风景名胜",
    "class2": "风景名胜",
    "class3": "纪念馆",
    "class4": null,
    "lon": 113.1751076681,
    "lat": 35.3356920445,
    "address": "龙翔街道中共焦作城市工作委员会旧址",
    "固话": null,
    "tel": null
  },
  {
    "省": "河南",
    "市": "焦作",
    "县区": "中站区",
    "PoiID": "B0FFMA0YFU",
    "name": "葫芦寺",
    "class1": "风景名胜",
    "class2": "风景名胜",
    "class3": "寺庙道观",
    "class4": null,
    "lon": 113.1400162498,
    "lat": 35.3453686391,
    "address": null,
    "固话": null,
    "tel": null
  },
  {
    "省": "河南",
    "市": "焦作",
    "县区": "中站区",
    "PoiID": "B0FFG9X9MU",
    "name": "许文正公祠",
    "class1": "风景名胜",
    "class2": "风景名胜",
    "class3": "风景名胜",
    "class4": null,
    "lon": 113.1591986081,
    "lat": 35.2448614496,
    "address": "月华路西200米",
    "固话": null,
    "tel": null
  },
  {
    "省": "河南",
    "市": "焦作",
    "县区": "中站区",
    "PoiID": "B0FFGO44FO",
    "name": "周窑遗址",
    "class1": "风景名胜",
    "class2": "风景名胜相关",
    "class3": "旅游景点",
    "class4": null,
    "lon": 113.1339868387,
    "lat": 35.2850335297,
    "address": "中冰线西50米",
    "固话": null,
    "tel": null
  },
  {
    "省": "河南",
    "市": "焦作",
    "县区": "中站区",
    "PoiID": "B0FFHCXEN5",
    "name": "焦作市龙翔矿山公园",
    "class1": "风景名胜",
    "class2": "公园广场",
    "class3": "公园",
    "class4": null,
    "lon": 113.14820961,
    "lat": 35.262500884,
    "address": "龙翔矿山公园",
    "固话": null,
    "tel": null
  },
  {
    "省": "河南",
    "市": "焦作",
    "县区": "中站区",
    "PoiID": "B018700TG7",
    "name": "灵岩寺",
    "class1": "风景名胜",
    "class2": "风景名胜",
    "class3": "寺庙道观",
    "class4": null,
    "lon": 113.1215191123,
    "lat": 35.2531232352,
    "address": "G5512晋新高速附近",
    "固话": null,
    "tel": null
  },
  {
    "省": "河南",
    "市": "焦作",
    "县区": "中站区",
    "PoiID": "B0FFJ5KX0F",
    "name": "焦作祈福院",
    "class1": "风景名胜",
    "class2": "风景名胜",
    "class3": "风景名胜",
    "class4": null,
    "lon": 113.1343397804,
    "lat": 35.2366189271,
    "address": null,
    "固话": null,
    "tel": null
  },
  {
    "省": "河南",
    "市": "焦作",
    "县区": "中站区",
    "PoiID": "B0187015BH",
    "name": "鲁斋许夫子祠",
    "class1": "风景名胜",
    "class2": "风景名胜",
    "class3": "风景名胜",
    "class4": null,
    "lon": 113.1592627485,
    "lat": 35.2447886422,
    "address": "月华路西200米",
    "固话": null,
    "tel": null
  },
  {
    "省": "河南",
    "市": "焦作",
    "县区": "中站区",
    "PoiID": "B0GUCH4ODJ",
    "name": "许衡文化公园-青年志愿亭",
    "class1": "风景名胜",
    "class2": "风景名胜相关",
    "class3": "旅游景点",
    "class4": null,
    "lon": 113.1740664894,
    "lat": 35.2361989815,
    "address": "解放西路与紫荆路交叉路口往西南约100米",
    "固话": null,
    "tel": null
  },
  {
    "省": "河南",
    "市": "焦作",
    "县区": "博爱县",
    "PoiID": "B0FFMDG2HU",
    "name": "焦作天安纪念公园",
    "class1": "风景名胜",
    "class2": "公园广场",
    "class3": "公园",
    "class4": null,
    "lon": 113.0777381642,
    "lat": 35.242902921,
    "address": "寨豁乡桥沟村西1公里",
    "固话": null,
    "tel": null
  },
  {
    "省": "河南",
    "市": "焦作",
    "县区": "博爱县",
    "PoiID": "B0FFGCS3M6",
    "name": "金伞山寺",
    "class1": "风景名胜",
    "class2": "风景名胜",
    "class3": "寺庙道观",
    "class4": null,
    "lon": 113.0903819241,
    "lat": 35.2201396622,
    "address": null,
    "固话": null,
    "tel": null
  },
  {
    "省": "河南",
    "市": "焦作",
    "县区": "博爱县",
    "PoiID": "B0FFIFHDCX",
    "name": "博爱县李商隐文化主题公园",
    "class1": "风景名胜",
    "class2": "风景名胜",
    "class3": "风景名胜",
    "class4": null,
    "lon": 113.0840268244,
    "lat": 35.2058027396,
    "address": "人民路与海华路交叉口北侧",
    "固话": null,
    "tel": null
  },
  {
    "省": "河南",
    "市": "焦作",
    "县区": "博爱县",
    "PoiID": "B018700TU7",
    "name": "康溝园",
    "class1": "风景名胜",
    "class2": "风景名胜",
    "class3": "风景名胜",
    "class4": null,
    "lon": 113.085830779,
    "lat": 35.2226897987,
    "address": "柏山镇柏山村后坑路",
    "固话": null,
    "tel": null
  },
  {
    "省": "河南",
    "市": "焦作",
    "县区": "博爱县",
    "PoiID": "B0FFMCAV0X",
    "name": "焦作北山生态环境保护区",
    "class1": "风景名胜",
    "class2": "风景名胜相关",
    "class3": "旅游景点",
    "class4": null,
    "lon": 113.0728949757,
    "lat": 35.2151587361,
    "address": "卫柿线",
    "固话": null,
    "tel": null
  },
  {
    "省": "河南",
    "市": "焦作",
    "县区": "博爱县",
    "PoiID": "B018700YZ0",
    "name": "青天河风景区",
    "class1": "风景名胜",
    "class2": "风景名胜",
    "class3": "国家级景点",
    "class4": null,
    "lon": 113.0041343213,
    "lat": 35.341516393,
    "address": "寨豁乡青南路",
    "固话": "0391-8972950",
    "tel": null
  },
  {
    "省": "河南",
    "市": "焦作",
    "县区": "博爱县",
    "PoiID": "B018700TSU",
    "name": "月山寺",
    "class1": "风景名胜",
    "class2": "风景名胜",
    "class3": "寺庙道观",
    "class4": null,
    "lon": 113.0479739378,
    "lat": 35.2199974902,
    "address": "月山镇",
    "固话": "0391-8972910",
    "tel": null
  },
  {
    "省": "河南",
    "市": "焦作",
    "县区": "博爱县",
    "PoiID": "B018700YCW",
    "name": "云台山世界地质公园青天河园区",
    "class1": "风景名胜",
    "class2": "风景名胜",
    "class3": "风景名胜",
    "class4": null,
    "lon": 113.0437554014,
    "lat": 35.3552149197,
    "address": "寨豁乡",
    "固话": "0391-8972910",
    "tel": null
  },
  {
    "省": "河南",
    "市": "焦作",
    "县区": "博爱县",
    "PoiID": "B0G0BB03EE",
    "name": "小底爱情公园",
    "class1": "风景名胜",
    "class2": "公园广场",
    "class3": "公园",
    "class4": null,
    "lon": 113.0339912553,
    "lat": 35.2988326829,
    "address": null,
    "固话": null,
    "tel": null
  },
  {
    "省": "河南",
    "市": "焦作",
    "县区": "博爱县",
    "PoiID": "B0GUJORUF7",
    "name": "孙真庵",
    "class1": "风景名胜",
    "class2": "风景名胜",
    "class3": "风景名胜",
    "class4": null,
    "lon": 113.0096564108,
    "lat": 35.2054176707,
    "address": null,
    "固话": null,
    "tel": null
  },
  {
    "省": "河南",
    "市": "焦作",
    "县区": "博爱县",
    "PoiID": "B0FFKWUSNV",
    "name": "圪垱坡景区",
    "class1": "风景名胜",
    "class2": "风景名胜",
    "class3": "风景名胜",
    "class4": null,
    "lon": 113.0141996201,
    "lat": 35.2075632084,
    "address": null,
    "固话": null,
    "tel": null
  },
  {
    "省": "河南",
    "市": "焦作",
    "县区": "博爱县",
    "PoiID": "B0FFGB6AAO",
    "name": "圪垱坡火炬观",
    "class1": "风景名胜",
    "class2": "风景名胜相关",
    "class3": "旅游景点",
    "class4": null,
    "lon": 113.0153880152,
    "lat": 35.2083010364,
    "address": "城西北七公里的太行山南麓",
    "固话": null,
    "tel": null
  },
  {
    "省": "河南",
    "市": "焦作",
    "县区": "博爱县",
    "PoiID": "B0FFI9R2SH",
    "name": "龟灵寺",
    "class1": "风景名胜",
    "class2": "风景名胜",
    "class3": "寺庙道观",
    "class4": null,
    "lon": 112.9940050853,
    "lat": 35.2592402858,
    "address": "寨豁乡方山村",
    "固话": null,
    "tel": null
  },
  {
    "省": "河南",
    "市": "焦作",
    "县区": "博爱县",
    "PoiID": "B0HB7S179Y",
    "name": "焦作西站站前广场(建设中)",
    "class1": "风景名胜",
    "class2": "公园广场",
    "class3": "城市广场",
    "class4": null,
    "lon": 113.0562343632,
    "lat": 35.2071732822,
    "address": null,
    "固话": null,
    "tel": null
  },
  {
    "省": "河南",
    "市": "焦作",
    "县区": "博爱县",
    "PoiID": "B0FFICI3HH",
    "name": "骆驼峰",
    "class1": "风景名胜",
    "class2": "风景名胜相关",
    "class3": "旅游景点",
    "class4": null,
    "lon": 112.9866018219,
    "lat": 35.3435778635,
    "address": "西北部博爱县青南路青天河风景区内",
    "固话": null,
    "tel": null
  },
  {
    "省": "河南",
    "市": "焦作",
    "县区": "博爱县",
    "PoiID": "B0FFIVRAZU",
    "name": "关公洞",
    "class1": "风景名胜",
    "class2": "风景名胜相关",
    "class3": "旅游景点",
    "class4": null,
    "lon": 112.9821699765,
    "lat": 35.3214964438,
    "address": "西北部博爱县青南路青天河风景区内",
    "固话": null,
    "tel": null
  },
  {
    "省": "河南",
    "市": "焦作",
    "县区": "博爱县",
    "PoiID": "B0FFIZMAG5",
    "name": "九曲大回转",
    "class1": "风景名胜",
    "class2": "风景名胜相关",
    "class3": "旅游景点",
    "class4": null,
    "lon": 113.0159605175,
    "lat": 35.356819948,
    "address": "靳家岭游览区内",
    "固话": null,
    "tel": null
  },
  {
    "省": "河南",
    "市": "焦作",
    "县区": "博爱县",
    "PoiID": "B0FFILLULD",
    "name": "360极限飞行飞跃青天河",
    "class1": "风景名胜",
    "class2": "风景名胜相关",
    "class3": "旅游景点",
    "class4": null,
    "lon": 112.9826266489,
    "lat": 35.3169523,
    "address": "西北部博爱县青南路青天河风景区内",
    "固话": null,
    "tel": null
  },
  {
    "省": "河南",
    "市": "焦作",
    "县区": "博爱县",
    "PoiID": "B0HBT74K2C",
    "name": "云顶玻璃栈道",
    "class1": "风景名胜",
    "class2": "风景名胜相关",
    "class3": "旅游景点",
    "class4": null,
    "lon": 113.0106651854,
    "lat": 35.3539667957,
    "address": "靳家岭游览区内",
    "固话": null,
    "tel": null
  },
  {
    "省": "河南",
    "市": "焦作",
    "县区": "博爱县",
    "PoiID": "B0GUB6JA6S",
    "name": "伍松顶",
    "class1": "风景名胜",
    "class2": "风景名胜相关",
    "class3": "旅游景点",
    "class4": null,
    "lon": 112.9989477501,
    "lat": 35.3267615705,
    "address": "(青天河风景区)",
    "固话": null,
    "tel": null
  },
  {
    "省": "河南",
    "市": "焦作",
    "县区": "博爱县",
    "PoiID": "B0FFIZPO8P",
    "name": "七彩瀑",
    "class1": "风景名胜",
    "class2": "风景名胜相关",
    "class3": "旅游景点",
    "class4": null,
    "lon": 113.0019492424,
    "lat": 35.3581231128,
    "address": "西北部博爱县青南路青天河风景区内",
    "固话": null,
    "tel": null
  },
  {
    "省": "河南",
    "市": "焦作",
    "县区": "博爱县",
    "PoiID": "B0FFL0R61R",
    "name": "老灵山庙",
    "class1": "风景名胜",
    "class2": "风景名胜相关",
    "class3": "旅游景点",
    "class4": null,
    "lon": 113.0288371016,
    "lat": 35.210807939,
    "address": null,
    "固话": null,
    "tel": null
  },
  {
    "省": "河南",
    "市": "焦作",
    "县区": "博爱县",
    "PoiID": "B0FFGRN3DE",
    "name": "青天河精神纪念馆、东汉古槐",
    "class1": "风景名胜",
    "class2": "风景名胜相关",
    "class3": "旅游景点",
    "class4": null,
    "lon": 112.9840268478,
    "lat": 35.3188483211,
    "address": "西北部博爱县青南路青天河风景区内",
    "固话": null,
    "tel": null
  },
  {
    "省": "河南",
    "市": "焦作",
    "县区": "博爱县",
    "PoiID": "B0FFIZXZ75",
    "name": "环翠峡",
    "class1": "风景名胜",
    "class2": "风景名胜相关",
    "class3": "旅游景点",
    "class4": null,
    "lon": 113.0220726758,
    "lat": 35.3582036949,
    "address": "西北部博爱县青南路青天河风景区内",
    "固话": null,
    "tel": null
  },
  {
    "省": "河南",
    "市": "焦作",
    "县区": "博爱县",
    "PoiID": "B0FFIZQ3CP",
    "name": "九曲涧",
    "class1": "风景名胜",
    "class2": "风景名胜相关",
    "class3": "旅游景点",
    "class4": null,
    "lon": 112.981034028,
    "lat": 35.3257968643,
    "address": "西北部博爱县青南路青天河风景区内",
    "固话": null,
    "tel": null
  },
  {
    "省": "河南",
    "市": "焦作",
    "县区": "博爱县",
    "PoiID": "B0FFGV5PMA",
    "name": "三渡风景区",
    "class1": "风景名胜",
    "class2": "风景名胜相关",
    "class3": "旅游景点",
    "class4": null,
    "lon": 112.9827017511,
    "lat": 35.2301048812,
    "address": "034县道东150米附近",
    "固话": null,
    "tel": null
  },
  {
    "省": "河南",
    "市": "焦作",
    "县区": "博爱县",
    "PoiID": "B0FFKYS75Z",
    "name": "靳家岭游览区-观景台",
    "class1": "风景名胜",
    "class2": "风景名胜",
    "class3": "观景点",
    "class4": null,
    "lon": 112.9964125214,
    "lat": 35.3401940155,
    "address": "靳家岭游览区内",
    "固话": null,
    "tel": null
  },
  {
    "省": "河南",
    "市": "焦作",
    "县区": "博爱县",
    "PoiID": "B018700TVU",
    "name": "西关清真寺",
    "class1": "风景名胜",
    "class2": "风景名胜",
    "class3": "回教寺",
    "class4": null,
    "lon": 113.0525870224,
    "lat": 35.1688525317,
    "address": "西关村民族街",
    "固话": null,
    "tel": null
  },
  {
    "省": "河南",
    "市": "焦作",
    "县区": "博爱县",
    "PoiID": "B018700TTR",
    "name": "清真东大寺",
    "class1": "风景名胜",
    "class2": "风景名胜",
    "class3": "回教寺",
    "class4": null,
    "lon": 113.0092919878,
    "lat": 35.1948677285,
    "address": "许良镇友谊路清真西女寺东南350米",
    "固话": null,
    "tel": null
  },
  {
    "省": "河南",
    "市": "焦作",
    "县区": "博爱县",
    "PoiID": "B0G0XU27B8",
    "name": "三官庙",
    "class1": "风景名胜",
    "class2": "风景名胜",
    "class3": "寺庙道观",
    "class4": null,
    "lon": 113.0035136313,
    "lat": 35.1966611046,
    "address": null,
    "固话": null,
    "tel": null
  },
  {
    "省": "河南",
    "市": "焦作",
    "县区": "博爱县",
    "PoiID": "B0FFL4DB9X",
    "name": "博爱吕店基督教堂",
    "class1": "风景名胜",
    "class2": "风景名胜",
    "class3": "教堂",
    "class4": null,
    "lon": 112.9978290234,
    "lat": 35.182112605,
    "address": "许良镇吕店村村委会附近",
    "固话": null,
    "tel": null
  },
  {
    "省": "河南",
    "市": "焦作",
    "县区": "博爱县",
    "PoiID": "B0HB9MDDCK",
    "name": "博爱县孝敬镇留村玉皇庙",
    "class1": "风景名胜",
    "class2": "风景名胜",
    "class3": "寺庙道观",
    "class4": null,
    "lon": 112.9854887459,
    "lat": 35.0897750295,
    "address": "孝敬镇留村",
    "固话": null,
    "tel": null
  },
  {
    "省": "河南",
    "市": "焦作",
    "县区": "博爱县",
    "PoiID": "B0FFKY887B",
    "name": "太行博竹苑",
    "class1": "风景名胜",
    "class2": "风景名胜",
    "class3": "风景名胜",
    "class4": null,
    "lon": 113.0192513251,
    "lat": 35.146339618,
    "address": "308省道北150米河南太行博竹庄园附近",
    "固话": null,
    "tel": null
  },
  {
    "省": "河南",
    "市": "焦作",
    "县区": "博爱县",
    "PoiID": "B0H6MNCK9U",
    "name": "张昺祠",
    "class1": "风景名胜",
    "class2": "风景名胜",
    "class3": "风景名胜",
    "class4": null,
    "lon": 113.0230267327,
    "lat": 35.1993910379,
    "address": "皂角树村中学西邻",
    "固话": null,
    "tel": null
  },
  {
    "省": "河南",
    "市": "焦作",
    "县区": "博爱县",
    "PoiID": "B0FFL26X18",
    "name": "金秋园林古建",
    "class1": "风景名胜",
    "class2": "风景名胜",
    "class3": "风景名胜",
    "class4": null,
    "lon": 113.0239235962,
    "lat": 35.1895898713,
    "address": "丰许路附近",
    "固话": null,
    "tel": null
  },
  {
    "省": "河南",
    "市": "焦作",
    "县区": "博爱县",
    "PoiID": "B0G0LAGMHW",
    "name": "后莎庄清真男寺",
    "class1": "风景名胜",
    "class2": "风景名胜",
    "class3": "回教寺",
    "class4": null,
    "lon": 113.0467612284,
    "lat": 35.1560699066,
    "address": null,
    "固话": null,
    "tel": null
  },
  {
    "省": "河南",
    "市": "焦作",
    "县区": "博爱县",
    "PoiID": "B0FFLJFCVH",
    "name": "许良清真男寺",
    "class1": "风景名胜",
    "class2": "风景名胜",
    "class3": "回教寺",
    "class4": null,
    "lon": 113.0048823387,
    "lat": 35.176876777,
    "address": "许良镇南西街",
    "固话": null,
    "tel": 13069485623.0
  },
  {
    "省": "河南",
    "市": "焦作",
    "县区": "博爱县",
    "PoiID": "B0FFKGBLMY",
    "name": "清真寺",
    "class1": "风景名胜",
    "class2": "风景名胜",
    "class3": "回教寺",
    "class4": null,
    "lon": 113.053824259,
    "lat": 35.176396426,
    "address": "环城西路与群英路交叉口西100米",
    "固话": null,
    "tel": null
  },
  {
    "省": "河南",
    "市": "焦作",
    "县区": "博爱县",
    "PoiID": "B0FFGEI05V",
    "name": "南道玉皇庙",
    "class1": "风景名胜",
    "class2": "风景名胜",
    "class3": "寺庙道观",
    "class4": null,
    "lon": 113.0175626365,
    "lat": 35.1734713566,
    "address": "许良镇南道村",
    "固话": null,
    "tel": null
  },
  {
    "省": "河南",
    "市": "焦作",
    "县区": "博爱县",
    "PoiID": "B0FFGCS2UF",
    "name": "汤帝庙",
    "class1": "风景名胜",
    "class2": "风景名胜",
    "class3": "寺庙道观",
    "class4": null,
    "lon": 113.0504027518,
    "lat": 35.0567827131,
    "address": "博王路与011乡道交叉口东南50米",
    "固话": null,
    "tel": null
  },
  {
    "省": "河南",
    "市": "焦作",
    "县区": "博爱县",
    "PoiID": "B0FFL3EX84",
    "name": "毛主席纪念馆",
    "class1": "风景名胜",
    "class2": "风景名胜",
    "class3": "纪念馆",
    "class4": null,
    "lon": 112.9763288467,
    "lat": 35.156053223,
    "address": "狮口村十字口路西",
    "固话": null,
    "tel": null
  },
  {
    "省": "河南",
    "市": "焦作",
    "县区": "博爱县",
    "PoiID": "B0FFHWJ39G",
    "name": "博爱县二街清真男寺",
    "class1": "风景名胜",
    "class2": "风景名胜",
    "class3": "回教寺",
    "class4": null,
    "lon": 113.0539350178,
    "lat": 35.1762414044,
    "address": "环城西路与群英路交叉口西南100米",
    "固话": null,
    "tel": null
  },
  {
    "省": "河南",
    "市": "焦作",
    "县区": "博爱县",
    "PoiID": "B018700VZ0",
    "name": "盆景苑",
    "class1": "风景名胜",
    "class2": "风景名胜",
    "class3": "风景名胜",
    "class4": null,
    "lon": 113.0210048248,
    "lat": 35.1468522193,
    "address": "308省道北100米",
    "固话": null,
    "tel": null
  },
  {
    "省": "河南",
    "市": "焦作",
    "县区": "博爱县",
    "PoiID": "B018700VPM",
    "name": "清真寺(闪拐)",
    "class1": "风景名胜",
    "class2": "风景名胜",
    "class3": "回教寺",
    "class4": null,
    "lon": 112.9653706115,
    "lat": 35.1337702673,
    "address": "009乡道西50米",
    "固话": null,
    "tel": null
  },
  {
    "省": "河南",
    "市": "焦作",
    "县区": "博爱县",
    "PoiID": "B018700TTS",
    "name": "清真西寺",
    "class1": "风景名胜",
    "class2": "风景名胜",
    "class3": "回教寺",
    "class4": null,
    "lon": 113.0065945712,
    "lat": 35.1950705241,
    "address": "许良镇友谊路清真西女寺",
    "固话": null,
    "tel": null
  },
  {
    "省": "河南",
    "市": "焦作",
    "县区": "博爱县",
    "PoiID": "B018700TR6",
    "name": "清真寺",
    "class1": "风景名胜",
    "class2": "风景名胜",
    "class3": "回教寺",
    "class4": null,
    "lon": 112.9927099741,
    "lat": 35.1887652335,
    "address": "清化镇(博爱县法院对面)",
    "固话": null,
    "tel": null
  },
  {
    "省": "河南",
    "市": "焦作",
    "县区": "博爱县",
    "PoiID": "B0FFL9Q662",
    "name": "清化镇三街白衣堂",
    "class1": "风景名胜",
    "class2": "风景名胜",
    "class3": "风景名胜",
    "class4": null,
    "lon": 113.0591256335,
    "lat": 35.167038043,
    "address": "清化镇广场西街29号",
    "固话": null,
    "tel": null
  },
  {
    "省": "河南",
    "市": "焦作",
    "县区": "博爱县",
    "PoiID": "B0G02L78P4",
    "name": "清真寺(后莎庄店)",
    "class1": "风景名胜",
    "class2": "风景名胜",
    "class3": "回教寺",
    "class4": null,
    "lon": 113.0470145358,
    "lat": 35.1562122599,
    "address": "清真女寺(后莎庄)附近",
    "固话": null,
    "tel": null
  },
  {
    "省": "河南",
    "市": "焦作",
    "县区": "博爱县",
    "PoiID": "B018700VZ2",
    "name": "清真寺",
    "class1": "风景名胜",
    "class2": "风景名胜",
    "class3": "回教寺",
    "class4": null,
    "lon": 113.000621781,
    "lat": 35.1545773874,
    "address": "西南村",
    "固话": null,
    "tel": null
  },
  {
    "省": "河南",
    "市": "焦作",
    "县区": "博爱县",
    "PoiID": "B018700TTW",
    "name": "朱家祖墓和碑记",
    "class1": "风景名胜",
    "class2": "风景名胜",
    "class3": "风景名胜",
    "class4": null,
    "lon": 113.0053380033,
    "lat": 35.1817093069,
    "address": "朱家祖墓和碑记(许良村大街西)",
    "固话": null,
    "tel": null
  },
  {
    "省": "河南",
    "市": "焦作",
    "县区": "博爱县",
    "PoiID": "B0FFGE6IHP",
    "name": "博爱县第一中学小广场",
    "class1": "风景名胜",
    "class2": "公园广场",
    "class3": "公园广场",
    "class4": null,
    "lon": 113.0527636758,
    "lat": 35.1862178718,
    "address": "团结路北段博爱县第一中学附近",
    "固话": null,
    "tel": null
  },
  {
    "省": "河南",
    "市": "焦作",
    "县区": "博爱县",
    "PoiID": "B0FFIP8429",
    "name": "博爱龙泉寺",
    "class1": "风景名胜",
    "class2": "风景名胜相关",
    "class3": "旅游景点",
    "class4": null,
    "lon": 113.0470094383,
    "lat": 35.130062464,
    "address": "024县道北50米",
    "固话": null,
    "tel": 15993750403.0
  },
  {
    "省": "河南",
    "市": "焦作",
    "县区": "博爱县",
    "PoiID": "B0FFHNU1CV",
    "name": "吕文穆公祠",
    "class1": "风景名胜",
    "class2": "风景名胜相关",
    "class3": "旅游景点",
    "class4": null,
    "lon": 113.0561497918,
    "lat": 35.1959900434,
    "address": null,
    "固话": null,
    "tel": null
  },
  {
    "省": "河南",
    "市": "焦作",
    "县区": "博爱县",
    "PoiID": "B0FFGCI6RF",
    "name": "中山国际广场",
    "class1": "风景名胜",
    "class2": "公园广场",
    "class3": "城市广场",
    "class4": null,
    "lon": 113.0566423333,
    "lat": 35.1722992016,
    "address": "团结路与建设街交叉路口往东南约50米",
    "固话": null,
    "tel": null
  },
  {
    "省": "河南",
    "市": "焦作",
    "县区": "马村区",
    "PoiID": "B018700TP2",
    "name": "天齐庙",
    "class1": "风景名胜",
    "class2": "风景名胜",
    "class3": "寺庙道观",
    "class4": null,
    "lon": 113.4075430632,
    "lat": 35.304467765,
    "address": "演马街道天齐庙",
    "固话": null,
    "tel": null
  },
  {
    "省": "河南",
    "市": "焦作",
    "县区": "马村区",
    "PoiID": "B0FFKNGC7G",
    "name": "毛主席纪念堂",
    "class1": "风景名胜",
    "class2": "风景名胜",
    "class3": "纪念馆",
    "class4": null,
    "lon": 113.4123799838,
    "lat": 35.3357177918,
    "address": "位村中心学校附近",
    "固话": null,
    "tel": null
  },
  {
    "省": "河南",
    "市": "焦作",
    "县区": "马村区",
    "PoiID": "B0FFMFF7P6",
    "name": "茁成·生态农庄景区",
    "class1": "风景名胜",
    "class2": "风景名胜",
    "class3": "国家级景点",
    "class4": null,
    "lon": 113.3791222914,
    "lat": 35.2947719207,
    "address": "亮马村九里山小学东1000米",
    "固话": null,
    "tel": 13203955753.0
  },
  {
    "省": "河南",
    "市": "焦作",
    "县区": "马村区",
    "PoiID": "B0FFH8JFS0",
    "name": "清真寺",
    "class1": "风景名胜",
    "class2": "风景名胜相关",
    "class3": "旅游景点",
    "class4": null,
    "lon": 113.4113301563,
    "lat": 35.3335170492,
    "address": "233省道东100米",
    "固话": null,
    "tel": null
  },
  {
    "省": "河南",
    "市": "焦作",
    "县区": "马村区",
    "PoiID": "B018700TLD",
    "name": "娘娘庙",
    "class1": "风景名胜",
    "class2": "风景名胜",
    "class3": "寺庙道观",
    "class4": null,
    "lon": 113.3234734726,
    "lat": 35.3281104089,
    "address": null,
    "固话": null,
    "tel": null
  },
  {
    "省": "河南",
    "市": "焦作",
    "县区": "马村区",
    "PoiID": "B0FFKVBDBN",
    "name": "百家祠",
    "class1": "风景名胜",
    "class2": "风景名胜",
    "class3": "风景名胜",
    "class4": null,
    "lon": 113.3227172319,
    "lat": 35.3281668108,
    "address": null,
    "固话": null,
    "tel": null
  },
  {
    "省": "河南",
    "市": "焦作",
    "县区": "马村区",
    "PoiID": "B018700TLC",
    "name": "二仙姑庙",
    "class1": "风景名胜",
    "class2": "风景名胜",
    "class3": "寺庙道观",
    "class4": null,
    "lon": 113.3224787869,
    "lat": 35.3281842533,
    "address": "娘娘庙附近",
    "固话": null,
    "tel": null
  },
  {
    "省": "河南",
    "市": "焦作",
    "县区": "马村区",
    "PoiID": "B0FFF3LHCV",
    "name": "九里山",
    "class1": "风景名胜",
    "class2": "风景名胜相关",
    "class3": "旅游景点",
    "class4": null,
    "lon": 113.365413927,
    "lat": 35.2953314239,
    "address": "010县道东150米",
    "固话": null,
    "tel": null
  },
  {
    "省": "河南",
    "市": "焦作",
    "县区": "马村区",
    "PoiID": "B018700TMS",
    "name": "石佛寺",
    "class1": "风景名胜",
    "class2": "风景名胜",
    "class3": "寺庙道观",
    "class4": null,
    "lon": 113.3268580744,
    "lat": 35.2521128911,
    "address": "建设东路3791号",
    "固话": null,
    "tel": null
  },
  {
    "省": "河南",
    "市": "焦作",
    "县区": "马村区",
    "PoiID": "B018700TNT",
    "name": "绿园",
    "class1": "风景名胜",
    "class2": "公园广场",
    "class3": "公园",
    "class4": null,
    "lon": 113.3202900623,
    "lat": 35.2638988106,
    "address": "文昌路684号",
    "固话": null,
    "tel": null
  },
  {
    "省": "河南",
    "市": "焦作",
    "县区": "马村区",
    "PoiID": "B0FFHNJ9V5",
    "name": "白鹭湿地公园",
    "class1": "风景名胜",
    "class2": "公园广场",
    "class3": "公园",
    "class4": null,
    "lon": 113.3473329734,
    "lat": 35.2653386236,
    "address": "010县道东100米",
    "固话": null,
    "tel": null
  },
  {
    "省": "河南",
    "市": "焦作",
    "县区": "马村区",
    "PoiID": "B018700TKG",
    "name": "清真寺",
    "class1": "风景名胜",
    "class2": "风景名胜",
    "class3": "回教寺",
    "class4": null,
    "lon": 113.3155237639,
    "lat": 35.2677151896,
    "address": "文昌路365号",
    "固话": null,
    "tel": 13939141945.0
  },
  {
    "省": "河南",
    "市": "焦作",
    "县区": "马村区",
    "PoiID": "B0G259XVS3",
    "name": "颐春游园",
    "class1": "风景名胜",
    "class2": "公园广场",
    "class3": "公园",
    "class4": null,
    "lon": 113.316710019,
    "lat": 35.25854198,
    "address": "颐春路与鑫垣路交叉路口东侧",
    "固话": null,
    "tel": null
  },
  {
    "省": "河南",
    "市": "焦作",
    "县区": "马村区",
    "PoiID": "B0FFKVFHCY",
    "name": "焦作圆通寺",
    "class1": "风景名胜",
    "class2": "风景名胜",
    "class3": "寺庙道观",
    "class4": null,
    "lon": 113.3509923446,
    "lat": 35.2525793281,
    "address": "北孔庄",
    "固话": null,
    "tel": null
  },
  {
    "省": "河南",
    "市": "焦作",
    "县区": "马村区",
    "PoiID": "B0G0NXZEIP",
    "name": "祖师庙",
    "class1": "风景名胜",
    "class2": "风景名胜",
    "class3": "寺庙道观",
    "class4": null,
    "lon": 113.3400252606,
    "lat": 35.2367218336,
    "address": null,
    "固话": null,
    "tel": null
  },
  {
    "省": "河南",
    "市": "焦作",
    "县区": "马村区",
    "PoiID": "B0HBO4JJOI",
    "name": "赵氏宗祠",
    "class1": "风景名胜",
    "class2": "风景名胜",
    "class3": "风景名胜",
    "class4": null,
    "lon": 113.359417453,
    "lat": 35.2543550848,
    "address": null,
    "固话": null,
    "tel": null
  },
  {
    "省": "河南",
    "市": "焦作",
    "县区": "马村区",
    "PoiID": "B0GKB5HE8V",
    "name": "赵氏宗祠",
    "class1": "风景名胜",
    "class2": "风景名胜",
    "class3": "风景名胜",
    "class4": null,
    "lon": 113.3557135992,
    "lat": 35.2456570378,
    "address": null,
    "固话": null,
    "tel": null
  },
  {
    "省": "河南",
    "市": "焦作",
    "县区": "马村区",
    "PoiID": "B0187010ZQ",
    "name": "基督教堂",
    "class1": "风景名胜",
    "class2": "风景名胜",
    "class3": "教堂",
    "class4": null,
    "lon": 113.312716702,
    "lat": 35.2728934478,
    "address": "文昌路与昌盛路交叉口北200米",
    "固话": null,
    "tel": null
  },
  {
    "省": "河南",
    "市": "焦作",
    "县区": "马村区",
    "PoiID": "B0FFFYBHBN",
    "name": "马村公园",
    "class1": "风景名胜",
    "class2": "风景名胜相关",
    "class3": "旅游景点",
    "class4": null,
    "lon": 113.3177590524,
    "lat": 35.2632123489,
    "address": "文昌路西50米",
    "固话": null,
    "tel": null
  },
  {
    "省": "河南",
    "市": "焦作",
    "县区": "马村区",
    "PoiID": "B0FFKYF1C4",
    "name": "白庄文化广场",
    "class1": "风景名胜",
    "class2": "公园广场",
    "class3": "城市广场",
    "class4": null,
    "lon": 113.3261518425,
    "lat": 35.2599094924,
    "address": "解放东路(白庄村翠苑-北区)",
    "固话": null,
    "tel": null
  },
  {
    "省": "河南",
    "市": "焦作",
    "县区": "马村区",
    "PoiID": "B0G3AXKGXP",
    "name": "东孔庄文化广场",
    "class1": "风景名胜",
    "class2": "公园广场",
    "class3": "城市广场",
    "class4": null,
    "lon": 113.3557126077,
    "lat": 35.2455961004,
    "address": null,
    "固话": null,
    "tel": null
  },
  {
    "省": "河南",
    "市": "焦作",
    "县区": "马村区",
    "PoiID": "B01870MW2M",
    "name": "普明寺",
    "class1": "风景名胜",
    "class2": "风景名胜",
    "class3": "风景名胜",
    "class4": null,
    "lon": 113.3205949619,
    "lat": 35.2313947808,
    "address": "文昌路西150米",
    "固话": null,
    "tel": null
  },
  {
    "省": "河南",
    "市": "焦作",
    "县区": "马村区",
    "PoiID": "B01870MWC3",
    "name": "演马基督教堂",
    "class1": "风景名胜",
    "class2": "风景名胜",
    "class3": "教堂",
    "class4": null,
    "lon": 113.3582328513,
    "lat": 35.2857679238,
    "address": "010县道东100米",
    "固话": null,
    "tel": null
  },
  {
    "省": "河南",
    "市": "焦作",
    "县区": "马村区",
    "PoiID": "B0FFHWXZMP",
    "name": "待王村清真寺",
    "class1": "风景名胜",
    "class2": "风景名胜",
    "class3": "回教寺",
    "class4": null,
    "lon": 113.3289727924,
    "lat": 35.2377802492,
    "address": "待王路南150米",
    "固话": null,
    "tel": null
  },
  {
    "省": "河南",
    "市": "焦作",
    "县区": "马村区",
    "PoiID": "B0G15RNHSA",
    "name": "韩王纪念地",
    "class1": "风景名胜",
    "class2": "风景名胜相关",
    "class3": "旅游景点",
    "class4": null,
    "lon": 113.3336987407,
    "lat": 35.2763810135,
    "address": "西韩王村",
    "固话": null,
    "tel": null
  },
  {
    "省": "河南",
    "市": "焦作",
    "县区": "马村区",
    "PoiID": "B0FFLOIM6U",
    "name": "紫荆寺",
    "class1": "风景名胜",
    "class2": "风景名胜相关",
    "class3": "旅游景点",
    "class4": null,
    "lon": 113.3283273929,
    "lat": 35.2816210577,
    "address": null,
    "固话": null,
    "tel": null
  },
  {
    "省": "河南",
    "市": "焦作",
    "县区": "马村区",
    "PoiID": "B0FFL772VE",
    "name": "祖师庙",
    "class1": "风景名胜",
    "class2": "风景名胜相关",
    "class3": "旅游景点",
    "class4": null,
    "lon": 113.3581290982,
    "lat": 35.2583459062,
    "address": null,
    "固话": null,
    "tel": null
  },
  {
    "省": "河南",
    "市": "焦作",
    "县区": "马村区",
    "PoiID": "B0FFK7JRNV",
    "name": "焦作马村区求职广场",
    "class1": "风景名胜",
    "class2": "风景名胜相关",
    "class3": "旅游景点",
    "class4": null,
    "lon": 113.315828372,
    "lat": 35.2648584202,
    "address": "文昌路415西南方向106米",
    "固话": null,
    "tel": 18135712282.0
  },
  {
    "省": "河南",
    "市": "焦作",
    "县区": "孟州市",
    "PoiID": "B0FFFHC1R6",
    "name": "福乐家玖惠广场",
    "class1": "风景名胜",
    "class2": "公园广场",
    "class3": "公园广场|购物服务",
    "class4": "购物相关场所",
    "lon": 112.7783019069,
    "lat": 34.9070518807,
    "address": "会昌街道西韩愈大街",
    "固话": null,
    "tel": null
  },
  {
    "省": "河南",
    "市": "焦作",
    "县区": "孟州市",
    "PoiID": "B018700WLN",
    "name": "崇圣寺",
    "class1": "风景名胜",
    "class2": "风景名胜",
    "class3": "寺庙道观",
    "class4": null,
    "lon": 112.8506489871,
    "lat": 34.9418709197,
    "address": "006乡道",
    "固话": null,
    "tel": null
  },
  {
    "省": "河南",
    "市": "焦作",
    "县区": "孟州市",
    "PoiID": "B0FFIKQV4H",
    "name": "关帝庙",
    "class1": "风景名胜",
    "class2": "风景名胜",
    "class3": "寺庙道观",
    "class4": null,
    "lon": 112.8126625669,
    "lat": 34.9795816982,
    "address": "谷旦村",
    "固话": null,
    "tel": null
  },
  {
    "省": "河南",
    "市": "焦作",
    "县区": "孟州市",
    "PoiID": "B0G02R638O",
    "name": "高祠先堂",
    "class1": "风景名胜",
    "class2": "风景名胜",
    "class3": "风景名胜",
    "class4": null,
    "lon": 112.8137238221,
    "lat": 34.9297690898,
    "address": null,
    "固话": null,
    "tel": null
  },
  {
    "省": "河南",
    "市": "焦作",
    "县区": "孟州市",
    "PoiID": "B0FFKR3VMB",
    "name": "邬氏宗祠",
    "class1": "风景名胜",
    "class2": "风景名胜",
    "class3": "风景名胜",
    "class4": null,
    "lon": 112.7554896179,
    "lat": 34.9386872122,
    "address": "河雍办事处西田丈村大街",
    "固话": null,
    "tel": null
  },
  {
    "省": "河南",
    "市": "焦作",
    "县区": "孟州市",
    "PoiID": "B0FFL13P44",
    "name": "谷旦文化广场",
    "class1": "风景名胜",
    "class2": "公园广场",
    "class3": "城市广场",
    "class4": null,
    "lon": 112.8004877258,
    "lat": 34.9636997204,
    "address": "谷黄线",
    "固话": null,
    "tel": null
  },
  {
    "省": "河南",
    "市": "焦作",
    "县区": "孟州市",
    "PoiID": "B0FFK7KTM9",
    "name": "城伯镇体育广场",
    "class1": "风景名胜",
    "class2": "公园广场",
    "class3": "城市广场",
    "class4": null,
    "lon": 112.8724538085,
    "lat": 34.9568879163,
    "address": "大定街道城伯镇子昌村村委会附近",
    "固话": null,
    "tel": null
  },
  {
    "省": "河南",
    "市": "焦作",
    "县区": "孟州市",
    "PoiID": "B0FFG2LHHW",
    "name": "薛氏先祠",
    "class1": "风景名胜",
    "class2": "风景名胜相关",
    "class3": "旅游景点",
    "class4": null,
    "lon": 112.8097891651,
    "lat": 34.9310384551,
    "address": "南北街41号附近",
    "固话": null,
    "tel": null
  },
  {
    "省": "河南",
    "市": "焦作",
    "县区": "孟州市",
    "PoiID": "B0FFI8SPQP",
    "name": "立义和睦广场",
    "class1": "风景名胜",
    "class2": "公园广场",
    "class3": "城市广场",
    "class4": null,
    "lon": 112.8244186008,
    "lat": 34.9593692216,
    "address": "044县道南50米",
    "固话": null,
    "tel": null
  },
  {
    "省": "河南",
    "市": "焦作",
    "县区": "孟州市",
    "PoiID": "B018700X50",
    "name": "孟县城清真寺",
    "class1": "风景名胜",
    "class2": "风景名胜",
    "class3": "回教寺",
    "class4": null,
    "lon": 112.7817216148,
    "lat": 34.901313422,
    "address": "市西街(会昌中心幼儿园东南侧约50米)",
    "固话": null,
    "tel": null
  },
  {
    "省": "河南",
    "市": "焦作",
    "县区": "孟州市",
    "PoiID": "B01870MW9C",
    "name": "基督教堂",
    "class1": "风景名胜",
    "class2": "风景名胜",
    "class3": "教堂",
    "class4": null,
    "lon": 112.7725483156,
    "lat": 34.9034405034,
    "address": "合欢南路与西河阳大街交叉口南150米",
    "固话": null,
    "tel": null
  },
  {
    "省": "河南",
    "市": "焦作",
    "县区": "孟州市",
    "PoiID": "B018700WMY",
    "name": "滨河公园",
    "class1": "风景名胜",
    "class2": "公园广场",
    "class3": "公园",
    "class4": null,
    "lon": 112.7978847893,
    "lat": 34.9202296055,
    "address": "黄河大道与湘子路交叉口向东200米路北",
    "固话": null,
    "tel": null
  },
  {
    "省": "河南",
    "市": "焦作",
    "县区": "孟州市",
    "PoiID": "B0FFG0DJEV",
    "name": "清真上寺",
    "class1": "风景名胜",
    "class2": "风景名胜",
    "class3": "回教寺",
    "class4": null,
    "lon": 112.8669970604,
    "lat": 34.9065480798,
    "address": "南庄镇惠民初级中学斜对面",
    "固话": null,
    "tel": null
  },
  {
    "省": "河南",
    "市": "焦作",
    "县区": "孟州市",
    "PoiID": "B0FFKSM1HY",
    "name": "赵氏宗祠",
    "class1": "风景名胜",
    "class2": "风景名胜",
    "class3": "风景名胜",
    "class4": null,
    "lon": 112.7926352941,
    "lat": 34.9000423872,
    "address": "东街与梧桐南路交叉路口往东南约100米",
    "固话": null,
    "tel": null
  },
  {
    "省": "河南",
    "市": "焦作",
    "县区": "孟州市",
    "PoiID": "B0FFIHKFQN",
    "name": "黄河湿地保护区",
    "class1": "风景名胜",
    "class2": "风景名胜",
    "class3": "风景名胜",
    "class4": null,
    "lon": 112.7845807537,
    "lat": 34.8401834124,
    "address": "中心大道126号",
    "固话": null,
    "tel": null
  },
  {
    "省": "河南",
    "市": "焦作",
    "县区": "孟州市",
    "PoiID": "B0FFMDYGLP",
    "name": "梧桐游园",
    "class1": "风景名胜",
    "class2": "公园广场",
    "class3": "公园",
    "class4": null,
    "lon": 112.7912927765,
    "lat": 34.9136113989,
    "address": "梧桐北路",
    "固话": null,
    "tel": null
  },
  {
    "省": "河南",
    "市": "焦作",
    "县区": "孟州市",
    "PoiID": "B0FFMAOHTD",
    "name": "清风园",
    "class1": "风景名胜",
    "class2": "公园广场",
    "class3": "公园",
    "class4": null,
    "lon": 112.771310958,
    "lat": 34.9151733608,
    "address": "西清风大街279西南方向160米",
    "固话": null,
    "tel": null
  },
  {
    "省": "河南",
    "市": "焦作",
    "县区": "孟州市",
    "PoiID": "B0FFL2L5UI",
    "name": "刘氏宗祠",
    "class1": "风景名胜",
    "class2": "风景名胜",
    "class3": "寺庙道观",
    "class4": null,
    "lon": 112.8529078014,
    "lat": 34.8806078199,
    "address": "(化工镇体育中心东南侧约150米)",
    "固话": null,
    "tel": null
  },
  {
    "省": "河南",
    "市": "焦作",
    "县区": "孟州市",
    "PoiID": "B0FFLO84SQ",
    "name": "吉祥湖公园",
    "class1": "风景名胜",
    "class2": "公园广场",
    "class3": "公园",
    "class4": null,
    "lon": 112.7681956871,
    "lat": 34.8934063992,
    "address": "南环路以北光华路两侧",
    "固话": null,
    "tel": null
  },
  {
    "省": "河南",
    "市": "焦作",
    "县区": "孟州市",
    "PoiID": "B0FFIXFLUA",
    "name": "韩湘之墓",
    "class1": "风景名胜",
    "class2": "风景名胜",
    "class3": "风景名胜",
    "class4": null,
    "lon": 112.8212891452,
    "lat": 34.9049985566,
    "address": "庙底村西",
    "固话": null,
    "tel": null
  },
  {
    "省": "河南",
    "市": "焦作",
    "县区": "孟州市",
    "PoiID": "B0HBTO40MN",
    "name": "大王庙",
    "class1": "风景名胜",
    "class2": "风景名胜",
    "class3": "寺庙道观",
    "class4": null,
    "lon": 112.7710949309,
    "lat": 34.8756004772,
    "address": "X046黄河大堤左岸起点一公里",
    "固话": null,
    "tel": null
  },
  {
    "省": "河南",
    "市": "焦作",
    "县区": "孟州市",
    "PoiID": "B0FFG7WXEF",
    "name": "关帝庙",
    "class1": "风景名胜",
    "class2": "风景名胜",
    "class3": "寺庙道观",
    "class4": null,
    "lon": 112.8204950633,
    "lat": 34.871658465,
    "address": null,
    "固话": null,
    "tel": null
  },
  {
    "省": "河南",
    "市": "焦作",
    "县区": "孟州市",
    "PoiID": "B018700X6Y",
    "name": "孟州市人民公园",
    "class1": "风景名胜",
    "class2": "公园广场",
    "class3": "公园",
    "class4": null,
    "lon": 112.7552580763,
    "lat": 34.9149074251,
    "address": "河雍街道西黄河大道人民公园",
    "固话": null,
    "tel": null
  },
  {
    "省": "河南",
    "市": "焦作",
    "县区": "孟州市",
    "PoiID": "B0G0XZZ1SZ",
    "name": "姚氏先祠",
    "class1": "风景名胜",
    "class2": "风景名胜",
    "class3": "风景名胜",
    "class4": null,
    "lon": 112.7844891557,
    "lat": 34.8923988553,
    "address": "大定南路辅路",
    "固话": null,
    "tel": null
  },
  {
    "省": "河南",
    "市": "焦作",
    "县区": "孟州市",
    "PoiID": "B0FFK807MI",
    "name": "党氏先祠",
    "class1": "风景名胜",
    "class2": "风景名胜",
    "class3": "风景名胜",
    "class4": null,
    "lon": 112.7966391362,
    "lat": 34.9159582686,
    "address": "观音堂(滨河公园南)",
    "固话": null,
    "tel": null
  },
  {
    "省": "河南",
    "市": "焦作",
    "县区": "孟州市",
    "PoiID": "B0FFKUVJG2",
    "name": "黄河文化苑",
    "class1": "风景名胜",
    "class2": "风景名胜相关",
    "class3": "旅游景点",
    "class4": null,
    "lon": 112.7871304639,
    "lat": 34.8576272843,
    "address": null,
    "固话": null,
    "tel": null
  },
  {
    "省": "河南",
    "市": "焦作",
    "县区": "孟州市",
    "PoiID": "B0FFLCHVJ1",
    "name": "清真上寺女礼拜殿",
    "class1": "风景名胜",
    "class2": "风景名胜",
    "class3": "教堂",
    "class4": null,
    "lon": 112.8670260701,
    "lat": 34.9067409001,
    "address": "文化路26号附近",
    "固话": null,
    "tel": null
  },
  {
    "省": "河南",
    "市": "焦作",
    "县区": "孟州市",
    "PoiID": "B0FFKUC2LS",
    "name": "清真西寺女礼拜殿",
    "class1": "风景名胜",
    "class2": "风景名胜",
    "class3": "教堂",
    "class4": null,
    "lon": 112.8597486433,
    "lat": 34.9068658337,
    "address": "栖凤路与新兴大道交叉路口往西约50米",
    "固话": null,
    "tel": null
  },
  {
    "省": "河南",
    "市": "焦作",
    "县区": "孟州市",
    "PoiID": "B0FFKR5XU6",
    "name": "清真东寺",
    "class1": "风景名胜",
    "class2": "风景名胜",
    "class3": "回教寺",
    "class4": null,
    "lon": 112.8698238995,
    "lat": 34.9054273331,
    "address": "新兴东大道",
    "固话": null,
    "tel": null
  },
  {
    "省": "河南",
    "市": "焦作",
    "县区": "孟州市",
    "PoiID": "B0G02555MZ",
    "name": "清真西寺",
    "class1": "风景名胜",
    "class2": "风景名胜",
    "class3": "回教寺",
    "class4": null,
    "lon": 112.8599236081,
    "lat": 34.9093763048,
    "address": null,
    "固话": null,
    "tel": null
  },
  {
    "省": "河南",
    "市": "焦作",
    "县区": "孟州市",
    "PoiID": "B0FFK8E0W2",
    "name": "清真西大寺",
    "class1": "风景名胜",
    "class2": "风景名胜",
    "class3": "回教寺",
    "class4": null,
    "lon": 112.8609671516,
    "lat": 34.9071980731,
    "address": "新兴大道与新兴西大道交叉口北100米",
    "固话": null,
    "tel": null
  },
  {
    "省": "河南",
    "市": "焦作",
    "县区": "孟州市",
    "PoiID": "B0FFHOCFSD",
    "name": "天王望都阁",
    "class1": "风景名胜",
    "class2": "风景名胜",
    "class3": "风景名胜",
    "class4": null,
    "lon": 112.6429774754,
    "lat": 34.9383962965,
    "address": null,
    "固话": null,
    "tel": null
  },
  {
    "省": "河南",
    "市": "焦作",
    "县区": "孟州市",
    "PoiID": "B0FFL17YAK",
    "name": "清凉寺",
    "class1": "风景名胜",
    "class2": "风景名胜",
    "class3": "寺庙道观",
    "class4": null,
    "lon": 112.6966952901,
    "lat": 34.9772090871,
    "address": null,
    "固话": null,
    "tel": null
  },
  {
    "省": "河南",
    "市": "焦作",
    "县区": "孟州市",
    "PoiID": "B0FFLCST5E",
    "name": "九顶寺",
    "class1": "风景名胜",
    "class2": "风景名胜",
    "class3": "寺庙道观",
    "class4": null,
    "lon": 112.655593579,
    "lat": 34.9628802253,
    "address": "涧西村",
    "固话": null,
    "tel": null
  },
  {
    "省": "河南",
    "市": "焦作",
    "县区": "孟州市",
    "PoiID": "B01870N2MS",
    "name": "河阳故城",
    "class1": "风景名胜",
    "class2": "风景名胜",
    "class3": "风景名胜",
    "class4": null,
    "lon": 112.6460144152,
    "lat": 34.9481811327,
    "address": "022乡道东50米",
    "固话": null,
    "tel": null
  },
  {
    "省": "河南",
    "市": "焦作",
    "县区": "孟州市",
    "PoiID": "B01870N2OS",
    "name": "古周城",
    "class1": "风景名胜",
    "class2": "风景名胜",
    "class3": "风景名胜",
    "class4": null,
    "lon": 112.6459006808,
    "lat": 34.9481983145,
    "address": "燕沟大桥100米向南",
    "固话": null,
    "tel": null
  },
  {
    "省": "河南",
    "市": "焦作",
    "县区": "孟州市",
    "PoiID": "B0FFGAML9U",
    "name": "孟州市西佛寺",
    "class1": "风景名胜",
    "class2": "风景名胜",
    "class3": "寺庙道观",
    "class4": null,
    "lon": 112.5829827386,
    "lat": 34.9373377189,
    "address": "槐树乡耿沟村",
    "固话": null,
    "tel": null
  },
  {
    "省": "河南",
    "市": "焦作",
    "县区": "孟州市",
    "PoiID": "B018700X6V",
    "name": "观音堂",
    "class1": "风景名胜",
    "class2": "风景名胜",
    "class3": "寺庙道观",
    "class4": null,
    "lon": 112.7966431491,
    "lat": 34.9158993401,
    "address": "武松北路梧桐村",
    "固话": null,
    "tel": null
  },
  {
    "省": "河南",
    "市": "焦作",
    "县区": "孟州市",
    "PoiID": "B01870MW7S",
    "name": "武松公园",
    "class1": "风景名胜",
    "class2": "公园广场",
    "class3": "公园",
    "class4": null,
    "lon": 112.7766925901,
    "lat": 34.9025369654,
    "address": "孟州市第二人民医院对面",
    "固话": null,
    "tel": null
  },
  {
    "省": "河南",
    "市": "焦作",
    "县区": "孟州市",
    "PoiID": "B0FFH4KFL2",
    "name": "小游园",
    "class1": "风景名胜",
    "class2": "公园广场",
    "class3": "公园",
    "class4": null,
    "lon": 112.7883088401,
    "lat": 34.908404681,
    "address": "武松南路22号附近",
    "固话": null,
    "tel": null
  },
  {
    "省": "河南",
    "市": "焦作",
    "县区": "孟州市",
    "PoiID": "B0HBRR6C8Y",
    "name": "东韩村和谐广场",
    "class1": "风景名胜",
    "class2": "公园广场",
    "class3": "城市广场",
    "class4": null,
    "lon": 112.8107794665,
    "lat": 34.8982973521,
    "address": null,
    "固话": null,
    "tel": null
  },
  {
    "省": "河南",
    "市": "焦作",
    "县区": "孟州市",
    "PoiID": "B0H6B1GBTJ",
    "name": "孟州市法治文化苑",
    "class1": "风景名胜",
    "class2": "公园广场",
    "class3": "城市广场",
    "class4": null,
    "lon": 112.7835668927,
    "lat": 34.911771345,
    "address": "西黄河大道与农坛南路交叉路口往东南约100米",
    "固话": null,
    "tel": null
  },
  {
    "省": "河南",
    "市": "焦作",
    "县区": "孟州市",
    "PoiID": "B0FFKAYI9I",
    "name": "文化广场",
    "class1": "风景名胜",
    "class2": "公园广场",
    "class3": "城市广场",
    "class4": null,
    "lon": 112.7835889176,
    "lat": 34.9118103315,
    "address": "黄河大道与大定南路交汇处",
    "固话": null,
    "tel": null
  },
  {
    "省": "河南",
    "市": "焦作",
    "县区": "孟州市",
    "PoiID": "B0FFJXCOS7",
    "name": "许庄村文化广场",
    "class1": "风景名胜",
    "class2": "公园广场",
    "class3": "城市广场",
    "class4": null,
    "lon": 112.8394555542,
    "lat": 34.8497989616,
    "address": "039县道北50米",
    "固话": null,
    "tel": null
  },
  {
    "省": "河南",
    "市": "焦作",
    "县区": "孟州市",
    "PoiID": "B0FFJUZF6K",
    "name": "石井村文化广场",
    "class1": "风景名胜",
    "class2": "公园广场",
    "class3": "城市广场",
    "class4": null,
    "lon": 112.8560361198,
    "lat": 34.8538663497,
    "address": "039县道与044县道交叉口东150米",
    "固话": null,
    "tel": null
  },
  {
    "省": "河南",
    "市": "焦作",
    "县区": "孟州市",
    "PoiID": "B0FFL2IJWD",
    "name": "云水文化广场",
    "class1": "风景名胜",
    "class2": "公园广场",
    "class3": "城市广场",
    "class4": null,
    "lon": 112.8273849293,
    "lat": 34.848464384,
    "address": "(云水学校东南侧约150米)",
    "固话": null,
    "tel": null
  },
  {
    "省": "河南",
    "市": "焦作",
    "县区": "孟州市",
    "PoiID": "B018700X15",
    "name": "韩愈陵园",
    "class1": "风景名胜",
    "class2": "风景名胜",
    "class3": "风景名胜",
    "class4": null,
    "lon": 112.7109782772,
    "lat": 34.9052362204,
    "address": "西虢镇西虢镇韩庄村",
    "固话": null,
    "tel": null
  },
  {
    "省": "河南",
    "市": "焦作",
    "县区": "孟州市",
    "PoiID": "B018700X0O",
    "name": "金山寺",
    "class1": "风景名胜",
    "class2": "风景名胜",
    "class3": "寺庙道观",
    "class4": null,
    "lon": 112.7350162276,
    "lat": 34.8845520847,
    "address": "238省道",
    "固话": null,
    "tel": null
  },
  {
    "省": "河南",
    "市": "焦作",
    "县区": "孟州市",
    "PoiID": "B0FFI8J7XU",
    "name": "西沃村文化广场",
    "class1": "风景名胜",
    "class2": "公园广场",
    "class3": "城市广场",
    "class4": null,
    "lon": 112.6782076207,
    "lat": 34.8817756644,
    "address": null,
    "固话": null,
    "tel": null
  },
  {
    "省": "河南",
    "市": "焦作",
    "县区": "孟州市",
    "PoiID": "B0FFIUHYGF",
    "name": "寺上村文化广场",
    "class1": "风景名胜",
    "class2": "风景名胜相关",
    "class3": "旅游景点",
    "class4": null,
    "lon": 112.7319864815,
    "lat": 34.8472925959,
    "address": "(寺上小学西侧)",
    "固话": null,
    "tel": null
  },
  {
    "省": "河南",
    "市": "焦作",
    "县区": "孟州市",
    "PoiID": "B0G0FU961K",
    "name": "魔幻迷宫",
    "class1": "风景名胜",
    "class2": "风景名胜相关",
    "class3": "旅游景点",
    "class4": null,
    "lon": 112.6491164455,
    "lat": 34.9151451753,
    "address": null,
    "固话": null,
    "tel": null
  },
  {
    "省": "河南",
    "市": "焦作",
    "县区": "孟州市",
    "PoiID": "B0FFLHZ5EA",
    "name": "莫沟滑索",
    "class1": "风景名胜",
    "class2": "风景名胜相关",
    "class3": "旅游景点",
    "class4": null,
    "lon": 112.6490187051,
    "lat": 34.9149106111,
    "address": "西虢镇莫沟村",
    "固话": null,
    "tel": null
  },
  {
    "省": "河南",
    "市": "焦作",
    "县区": "孟州市",
    "PoiID": "B0FFJXRMOM",
    "name": "席氏宗祠",
    "class1": "风景名胜",
    "class2": "风景名胜相关",
    "class3": "旅游景点",
    "class4": null,
    "lon": 112.7075828446,
    "lat": 34.8898882302,
    "address": null,
    "固话": null,
    "tel": null
  },
  {
    "省": "河南",
    "市": "焦作",
    "县区": "孟州市",
    "PoiID": "B0FFIXENJ5",
    "name": "救苦天尊庙",
    "class1": "风景名胜",
    "class2": "风景名胜相关",
    "class3": "旅游景点",
    "class4": null,
    "lon": 112.8305287451,
    "lat": 34.89906335,
    "address": null,
    "固话": null,
    "tel": null
  },
  {
    "省": "河南",
    "市": "焦作",
    "县区": "孟州市",
    "PoiID": "B0FFI0WPVC",
    "name": "清真老寺",
    "class1": "风景名胜",
    "class2": "风景名胜",
    "class3": "回教寺",
    "class4": null,
    "lon": 112.862123831,
    "lat": 34.9046553523,
    "address": "桑坡村穆光中路18号",
    "固话": null,
    "tel": null
  },
  {
    "省": "河南",
    "市": "焦作",
    "县区": "孟州市",
    "PoiID": "B0FFG0I1FZ",
    "name": "韩愈碑林",
    "class1": "风景名胜",
    "class2": "风景名胜",
    "class3": "风景名胜",
    "class4": null,
    "lon": 112.7756101294,
    "lat": 34.914971065,
    "address": "会昌北路与西清风大街交叉口西南50米",
    "固话": null,
    "tel": null
  },
  {
    "省": "河南",
    "市": "焦作",
    "县区": "孟州市",
    "PoiID": "B0FFHDXRT8",
    "name": "念佛堂",
    "class1": "风景名胜",
    "class2": "风景名胜相关",
    "class3": "旅游景点",
    "class4": null,
    "lon": 112.7791692101,
    "lat": 34.9041980605,
    "address": "汇丰路与西河阳大街交叉口东南50米",
    "固话": null,
    "tel": null
  },
  {
    "省": "河南",
    "市": "焦作",
    "县区": "孟州市",
    "PoiID": "B0FFIFR6OR",
    "name": "孟州市黄河公园",
    "class1": "风景名胜",
    "class2": "风景名胜相关",
    "class3": "旅游景点",
    "class4": null,
    "lon": 112.7848942046,
    "lat": 34.8399281133,
    "address": "046县道东50米",
    "固话": null,
    "tel": null
  },
  {
    "省": "河南",
    "市": "焦作",
    "县区": "孟州市",
    "PoiID": "B0FFFHC1R6",
    "name": "福乐家玖惠广场",
    "class1": "风景名胜",
    "class2": "公园广场",
    "class3": "公园广场|购物服务",
    "class4": "购物相关场所",
    "lon": 112.7783019069,
    "lat": 34.9070518807,
    "address": "会昌街道西韩愈大街",
    "固话": null,
    "tel": null
  },
  {
    "省": "河南",
    "市": "焦作",
    "县区": "孟州市",
    "PoiID": "B0G2XKJJBL",
    "name": "幸福宫",
    "class1": "风景名胜",
    "class2": "风景名胜相关",
    "class3": "旅游景点",
    "class4": null,
    "lon": 112.7932685443,
    "lat": 34.9072304808,
    "address": null,
    "固话": null,
    "tel": null
  },
  {
    "省": "河南",
    "市": "焦作",
    "县区": "孟州市",
    "PoiID": "B0FFI705J0",
    "name": "陈湾文化广场",
    "class1": "风景名胜",
    "class2": "公园广场",
    "class3": "城市广场",
    "class4": null,
    "lon": 112.7878975047,
    "lat": 34.8486640123,
    "address": "039县道北50米",
    "固话": null,
    "tel": null
  },
  {
    "省": "河南",
    "市": "焦作",
    "县区": "孟州市",
    "PoiID": "B0FFKDOOOP",
    "name": "人民广场",
    "class1": "风景名胜",
    "class2": "风景名胜相关",
    "class3": "旅游景点",
    "class4": null,
    "lon": 112.785266999,
    "lat": 34.9039572518,
    "address": "东河阳大街与大定南路交叉口南100米",
    "固话": null,
    "tel": null
  },
  {
    "省": "河南",
    "市": "焦作",
    "县区": "孟州市",
    "PoiID": "B0FFLATOU3",
    "name": "张氏家庙",
    "class1": "风景名胜",
    "class2": "风景名胜",
    "class3": "寺庙道观",
    "class4": null,
    "lon": 112.8124643456,
    "lat": 34.9111343416,
    "address": null,
    "固话": null,
    "tel": null
  },
  {
    "省": "河南",
    "市": "焦作",
    "县区": "孟州市",
    "PoiID": "B0FFL9CWTX",
    "name": "拙耕园",
    "class1": "风景名胜",
    "class2": "风景名胜相关",
    "class3": "旅游景点",
    "class4": null,
    "lon": 112.7574476918,
    "lat": 34.9049793462,
    "address": "S238(西环路)",
    "固话": null,
    "tel": null
  },
  {
    "省": "河南",
    "市": "焦作",
    "县区": "孟州市",
    "PoiID": "B0FFL0H8XS",
    "name": "广州金龙集团碰碰车",
    "class1": "风景名胜",
    "class2": "风景名胜相关",
    "class3": "旅游景点",
    "class4": null,
    "lon": 112.776487189,
    "lat": 34.9042398611,
    "address": "武松公园内标准溜冰城",
    "固话": null,
    "tel": null
  },
  {
    "省": "河南",
    "市": "焦作",
    "县区": "孟州市",
    "PoiID": "B01870N2MU",
    "name": "桑坡西大寺",
    "class1": "风景名胜",
    "class2": "风景名胜",
    "class3": "回教寺",
    "class4": null,
    "lon": 112.8610111962,
    "lat": 34.9072960226,
    "address": "新兴大道与新兴西大道交叉口北100米",
    "固话": null,
    "tel": null
  },
  {
    "省": "河南",
    "市": "焦作",
    "县区": "沁阳市",
    "PoiID": "B0FFF5RJPE",
    "name": "丹河峡谷风景区",
    "class1": "风景名胜",
    "class2": "风景名胜",
    "class3": "风景名胜",
    "class4": null,
    "lon": 112.9746034298,
    "lat": 35.2592985082,
    "address": "常平乡九渡村",
    "固话": null,
    "tel": null
  },
  {
    "省": "河南",
    "市": "焦作",
    "县区": "沁阳市",
    "PoiID": "B018700TRM",
    "name": "陈氏宗祠",
    "class1": "风景名胜",
    "class2": "风景名胜",
    "class3": "风景名胜",
    "class4": null,
    "lon": 112.9094744177,
    "lat": 35.1799332385,
    "address": "西向镇五街村",
    "固话": null,
    "tel": null
  },
  {
    "省": "河南",
    "市": "焦作",
    "县区": "沁阳市",
    "PoiID": "B018700YCY",
    "name": "神仙洞",
    "class1": "风景名胜",
    "class2": "风景名胜",
    "class3": "风景名胜",
    "class4": null,
    "lon": 112.9745843935,
    "lat": 35.260317554,
    "address": "034县道",
    "固话": null,
    "tel": null
  },
  {
    "省": "河南",
    "市": "焦作",
    "县区": "沁阳市",
    "PoiID": "B0GUDAPWCB",
    "name": "乐圣公园",
    "class1": "风景名胜",
    "class2": "公园广场",
    "class3": "公园",
    "class4": null,
    "lon": 112.9869209111,
    "lat": 35.2018422105,
    "address": "卫柿线",
    "固话": null,
    "tel": null
  },
  {
    "省": "河南",
    "市": "焦作",
    "县区": "沁阳市",
    "PoiID": "B0FFL1JPVD",
    "name": "祖师廟",
    "class1": "风景名胜",
    "class2": "风景名胜",
    "class3": "寺庙道观",
    "class4": null,
    "lon": 112.9343749775,
    "lat": 35.1931340874,
    "address": "九凤街",
    "固话": null,
    "tel": null
  },
  {
    "省": "河南",
    "市": "焦作",
    "县区": "沁阳市",
    "PoiID": "B0FFM6OPAO",
    "name": "关爷庙",
    "class1": "风景名胜",
    "class2": "风景名胜",
    "class3": "寺庙道观",
    "class4": null,
    "lon": 112.9548955339,
    "lat": 35.2140863511,
    "address": "山王庄镇山区",
    "固话": null,
    "tel": null
  },
  {
    "省": "河南",
    "市": "焦作",
    "县区": "沁阳市",
    "PoiID": "B0FFM5HGG9",
    "name": "三渡沟龙王庙",
    "class1": "风景名胜",
    "class2": "风景名胜",
    "class3": "寺庙道观",
    "class4": null,
    "lon": 112.9798518976,
    "lat": 35.2316048745,
    "address": "034县道西侧",
    "固话": null,
    "tel": null
  },
  {
    "省": "河南",
    "市": "焦作",
    "县区": "沁阳市",
    "PoiID": "B0FFF364IX",
    "name": "邘国故城",
    "class1": "风景名胜",
    "class2": "风景名胜",
    "class3": "风景名胜",
    "class4": null,
    "lon": 112.9133598968,
    "lat": 35.1784999933,
    "address": "西北15公里于邰村东",
    "固话": null,
    "tel": null
  },
  {
    "省": "河南",
    "市": "焦作",
    "县区": "沁阳市",
    "PoiID": "B0FFL9BHAE",
    "name": "三教堂",
    "class1": "风景名胜",
    "class2": "风景名胜",
    "class3": "教堂",
    "class4": null,
    "lon": 112.8959635754,
    "lat": 35.1668773681,
    "address": null,
    "固话": null,
    "tel": null
  },
  {
    "省": "河南",
    "市": "焦作",
    "县区": "沁阳市",
    "PoiID": "B0FFF5RI7V",
    "name": "李商隐故里",
    "class1": "风景名胜",
    "class2": "风景名胜",
    "class3": "纪念馆",
    "class4": null,
    "lon": 112.9784951888,
    "lat": 35.1857043716,
    "address": "104省道北50米",
    "固话": null,
    "tel": null
  },
  {
    "省": "河南",
    "市": "焦作",
    "县区": "沁阳市",
    "PoiID": "B0GD2ARUND",
    "name": "三渡湾网红桥",
    "class1": "风景名胜",
    "class2": "风景名胜",
    "class3": "风景名胜",
    "class4": null,
    "lon": 112.9814527726,
    "lat": 35.2296131249,
    "address": "焦作市博爱县三渡湾景区",
    "固话": null,
    "tel": 15539114424.0
  },
  {
    "省": "河南",
    "市": "焦作",
    "县区": "沁阳市",
    "PoiID": "B0H60ZHS48",
    "name": "沁阳和生森林动物乐园1期",
    "class1": "风景名胜",
    "class2": "风景名胜",
    "class3": "风景名胜",
    "class4": null,
    "lon": 112.9319954423,
    "lat": 35.1566426762,
    "address": "西万镇官庄屯西1公里",
    "固话": null,
    "tel": null
  },
  {
    "省": "河南",
    "市": "焦作",
    "县区": "沁阳市",
    "PoiID": "B0FFITQP4O",
    "name": "保寿寺",
    "class1": "风景名胜",
    "class2": "风景名胜",
    "class3": "风景名胜",
    "class4": null,
    "lon": 112.9355483578,
    "lat": 35.2191141284,
    "address": "常平乡张老湾村西",
    "固话": null,
    "tel": null
  },
  {
    "省": "河南",
    "市": "焦作",
    "县区": "沁阳市",
    "PoiID": "B0FFKZLJZG",
    "name": "常平阻击战纪念馆",
    "class1": "风景名胜",
    "class2": "风景名胜",
    "class3": "纪念馆",
    "class4": null,
    "lon": 112.9269401556,
    "lat": 35.2349515846,
    "address": "太行山南麓常平学校",
    "固话": null,
    "tel": null
  },
  {
    "省": "河南",
    "市": "焦作",
    "县区": "沁阳市",
    "PoiID": "B0HGKNEYYX",
    "name": "景明文化广场",
    "class1": "风景名胜",
    "class2": "公园广场",
    "class3": "城市广场",
    "class4": null,
    "lon": 112.9268328728,
    "lat": 35.1733386537,
    "address": null,
    "固话": null,
    "tel": null
  },
  {
    "省": "河南",
    "市": "焦作",
    "县区": "沁阳市",
    "PoiID": "B0G0FU954X",
    "name": "乐圣音乐广场",
    "class1": "风景名胜",
    "class2": "公园广场",
    "class3": "城市广场",
    "class4": null,
    "lon": 112.9878263658,
    "lat": 35.2009374014,
    "address": null,
    "固话": null,
    "tel": null
  },
  {
    "省": "河南",
    "市": "焦作",
    "县区": "沁阳市",
    "PoiID": "B0FFI5JLB1",
    "name": "基督教堂",
    "class1": "风景名胜",
    "class2": "风景名胜",
    "class3": "教堂",
    "class4": null,
    "lon": 112.9667924833,
    "lat": 35.1891402814,
    "address": "山王庄镇马庄小学东北400米",
    "固话": null,
    "tel": null
  },
  {
    "省": "河南",
    "市": "焦作",
    "县区": "沁阳市",
    "PoiID": "B0FFF35Q6L",
    "name": "朱载堉墓",
    "class1": "风景名胜",
    "class2": "风景名胜",
    "class3": "风景名胜",
    "class4": null,
    "lon": 112.9869029842,
    "lat": 35.2018332742,
    "address": "山王庄镇张坡村",
    "固话": null,
    "tel": null
  },
  {
    "省": "河南",
    "市": "焦作",
    "县区": "沁阳市",
    "PoiID": "B0H6PUQ2NA",
    "name": "野生动物集散基地",
    "class1": "风景名胜",
    "class2": "风景名胜相关",
    "class3": "旅游景点",
    "class4": null,
    "lon": 112.929690643,
    "lat": 35.156293655,
    "address": null,
    "固话": null,
    "tel": null
  },
  {
    "省": "河南",
    "市": "焦作",
    "县区": "沁阳市",
    "PoiID": "B0G0FOCNET",
    "name": "万善汤帝庙",
    "class1": "风景名胜",
    "class2": "风景名胜",
    "class3": "寺庙道观",
    "class4": null,
    "lon": 112.9507195821,
    "lat": 35.1806601478,
    "address": null,
    "固话": null,
    "tel": null
  },
  {
    "省": "河南",
    "市": "焦作",
    "县区": "沁阳市",
    "PoiID": "B0FFIATGUS",
    "name": "邘邰静应庙",
    "class1": "风景名胜",
    "class2": "风景名胜相关",
    "class3": "旅游景点",
    "class4": null,
    "lon": 112.9064876902,
    "lat": 35.177576384,
    "address": "西万镇001乡道北200米",
    "固话": null,
    "tel": null
  },
  {
    "省": "河南",
    "市": "焦作",
    "县区": "沁阳市",
    "PoiID": "B0FFL4SB2X",
    "name": "水世界",
    "class1": "风景名胜",
    "class2": "风景名胜相关",
    "class3": "旅游景点",
    "class4": null,
    "lon": 112.9407424847,
    "lat": 35.1847861547,
    "address": "文星街(道口学校西侧约150米)",
    "固话": null,
    "tel": null
  },
  {
    "省": "河南",
    "市": "焦作",
    "县区": "沁阳市",
    "PoiID": "B018700VOR",
    "name": "沁园",
    "class1": "风景名胜",
    "class2": "公园广场",
    "class3": "公园",
    "class4": null,
    "lon": 112.9286454612,
    "lat": 35.0938710771,
    "address": "建设北路与玉溪街交叉口西北50米",
    "固话": "0391-3830202",
    "tel": null
  },
  {
    "省": "河南",
    "市": "焦作",
    "县区": "沁阳市",
    "PoiID": "B018700VSF",
    "name": "天鹅湖生态园",
    "class1": "风景名胜",
    "class2": "风景名胜",
    "class3": "风景名胜",
    "class4": null,
    "lon": 112.9442003159,
    "lat": 35.0948921478,
    "address": "合作街",
    "固话": null,
    "tel": null
  },
  {
    "省": "河南",
    "市": "焦作",
    "县区": "沁阳市",
    "PoiID": "B018700XFY",
    "name": "沁阳北大寺",
    "class1": "风景名胜",
    "class2": "风景名胜",
    "class3": "回教寺",
    "class4": null,
    "lon": 112.9369180232,
    "lat": 35.0950451898,
    "address": "汪街7号",
    "固话": null,
    "tel": null
  },
  {
    "省": "河南",
    "市": "焦作",
    "县区": "沁阳市",
    "PoiID": "B018700VSQ",
    "name": "朱载堉纪念馆",
    "class1": "风景名胜",
    "class2": "风景名胜",
    "class3": "纪念馆",
    "class4": null,
    "lon": 112.9374638711,
    "lat": 35.0927607107,
    "address": "自治街薛街1号",
    "固话": "0391-5637578",
    "tel": null
  },
  {
    "省": "河南",
    "市": "焦作",
    "县区": "沁阳市",
    "PoiID": "B018700VQL",
    "name": "清真女寺",
    "class1": "风景名胜",
    "class2": "风景名胜",
    "class3": "回教寺",
    "class4": null,
    "lon": 112.941656507,
    "lat": 35.1041261914,
    "address": "太行街道水南关二居168",
    "固话": null,
    "tel": null
  },
  {
    "省": "河南",
    "市": "焦作",
    "县区": "沁阳市",
    "PoiID": "B018700WD4",
    "name": "联盟文化广场",
    "class1": "风景名胜",
    "class2": "公园广场",
    "class3": "城市广场",
    "class4": null,
    "lon": 112.9287346732,
    "lat": 35.0805216754,
    "address": "河内中路与祥和巷交叉口东南100米",
    "固话": null,
    "tel": null
  },
  {
    "省": "河南",
    "市": "焦作",
    "县区": "沁阳市",
    "PoiID": "B018700VQG",
    "name": "怀府广场",
    "class1": "风景名胜",
    "class2": "公园广场",
    "class3": "城市广场",
    "class4": null,
    "lon": 112.9126306098,
    "lat": 35.0947830359,
    "address": "怀府西路51号附近",
    "固话": null,
    "tel": null
  },
  {
    "省": "河南",
    "市": "焦作",
    "县区": "沁阳市",
    "PoiID": "B018700VUC",
    "name": "天宁寺三圣塔",
    "class1": "风景名胜",
    "class2": "风景名胜",
    "class3": "风景名胜",
    "class4": null,
    "lon": 112.9448293238,
    "lat": 35.0870924242,
    "address": "怀府东路3号",
    "固话": null,
    "tel": null
  },
  {
    "省": "河南",
    "市": "焦作",
    "县区": "沁阳市",
    "PoiID": "B01870N7BS",
    "name": "天宁寺",
    "class1": "风景名胜",
    "class2": "风景名胜",
    "class3": "寺庙道观",
    "class4": null,
    "lon": 112.9464565487,
    "lat": 35.0965355385,
    "address": "东环北路西100米",
    "固话": null,
    "tel": null
  },
  {
    "省": "河南",
    "市": "焦作",
    "县区": "沁阳市",
    "PoiID": "B0G07O95H8",
    "name": "沁阳市门户景观公园·沁园",
    "class1": "风景名胜",
    "class2": "公园广场",
    "class3": "公园",
    "class4": null,
    "lon": 112.9026658616,
    "lat": 35.0530326337,
    "address": "S238(常付路)",
    "固话": null,
    "tel": null
  },
  {
    "省": "河南",
    "市": "焦作",
    "县区": "沁阳市",
    "PoiID": "B0FFKM014G",
    "name": "沁阳市环保主题公园",
    "class1": "风景名胜",
    "class2": "公园广场",
    "class3": "公园",
    "class4": null,
    "lon": 112.9554384164,
    "lat": 35.0759904003,
    "address": "东环南路东50米",
    "固话": null,
    "tel": null
  },
  {
    "省": "河南",
    "市": "焦作",
    "县区": "沁阳市",
    "PoiID": "B0G0GRKTMJ",
    "name": "三官大帝庙",
    "class1": "风景名胜",
    "class2": "风景名胜",
    "class3": "寺庙道观",
    "class4": null,
    "lon": 112.9519001363,
    "lat": 35.1119153607,
    "address": null,
    "固话": null,
    "tel": null
  },
  {
    "省": "河南",
    "市": "焦作",
    "县区": "沁阳市",
    "PoiID": "B0FFM7JCWE",
    "name": "滨河公园",
    "class1": "风景名胜",
    "class2": "公园广场",
    "class3": "公园",
    "class4": null,
    "lon": 112.9543644355,
    "lat": 35.071541952,
    "address": "S312(长城东路)",
    "固话": null,
    "tel": null
  },
  {
    "省": "河南",
    "市": "焦作",
    "县区": "沁阳市",
    "PoiID": "B0G0XZXFCX",
    "name": "土地庙",
    "class1": "风景名胜",
    "class2": "风景名胜",
    "class3": "寺庙道观",
    "class4": null,
    "lon": 112.9064522091,
    "lat": 35.1060704968,
    "address": null,
    "固话": null,
    "tel": null
  },
  {
    "省": "河南",
    "市": "焦作",
    "县区": "沁阳市",
    "PoiID": "B018700VUJ",
    "name": "清真女寺",
    "class1": "风景名胜",
    "class2": "风景名胜",
    "class3": "回教寺",
    "class4": null,
    "lon": 112.9434968905,
    "lat": 35.0990180688,
    "address": "东环北路",
    "固话": null,
    "tel": null
  },
  {
    "省": "河南",
    "市": "焦作",
    "县区": "沁阳市",
    "PoiID": "B018700VPY",
    "name": "民族公园",
    "class1": "风景名胜",
    "class2": "公园广场",
    "class3": "公园",
    "class4": null,
    "lon": 112.93333178,
    "lat": 35.1048776246,
    "address": "建设北路34号",
    "固话": null,
    "tel": null
  },
  {
    "省": "河南",
    "市": "焦作",
    "县区": "沁阳市",
    "PoiID": "B018700YD9",
    "name": "天主堂",
    "class1": "风景名胜",
    "class2": "风景名胜",
    "class3": "教堂",
    "class4": null,
    "lon": 112.9395532786,
    "lat": 35.0750263842,
    "address": "覃怀街道灯塔街",
    "固话": null,
    "tel": null
  },
  {
    "省": "河南",
    "市": "焦作",
    "县区": "沁阳市",
    "PoiID": "B0FFI7B7J7",
    "name": "火神庙",
    "class1": "风景名胜",
    "class2": "风景名胜",
    "class3": "寺庙道观",
    "class4": null,
    "lon": 112.9513665363,
    "lat": 35.08641164,
    "address": "覃怀东路与029县道交叉口东南100米",
    "固话": null,
    "tel": null
  },
  {
    "省": "河南",
    "市": "焦作",
    "县区": "沁阳市",
    "PoiID": "B0FFG0HDL8",
    "name": "怀朴园",
    "class1": "风景名胜",
    "class2": "风景名胜",
    "class3": "风景名胜",
    "class4": null,
    "lon": 112.9371129097,
    "lat": 35.0819223105,
    "address": "南门街与河内中路交叉口东北200米",
    "固话": null,
    "tel": null
  },
  {
    "省": "河南",
    "市": "焦作",
    "县区": "沁阳市",
    "PoiID": "B0FFKR7ACY",
    "name": "水南关清真寺-阿文碑",
    "class1": "风景名胜",
    "class2": "风景名胜",
    "class3": "风景名胜",
    "class4": null,
    "lon": 112.9416824315,
    "lat": 35.1041630992,
    "address": "水南关二居168",
    "固话": null,
    "tel": null
  },
  {
    "省": "河南",
    "市": "焦作",
    "县区": "沁阳市",
    "PoiID": "B0FFKR3EY5",
    "name": "合作街清真寺",
    "class1": "风景名胜",
    "class2": "风景名胜",
    "class3": "回教寺",
    "class4": null,
    "lon": 112.9448061412,
    "lat": 35.0989234422,
    "address": "合作街清真寺(东环北路西150米)",
    "固话": null,
    "tel": null
  },
  {
    "省": "河南",
    "市": "焦作",
    "县区": "沁阳市",
    "PoiID": "B0FFL4YL2M",
    "name": "清真北寺",
    "class1": "风景名胜",
    "class2": "风景名胜",
    "class3": "回教寺",
    "class4": null,
    "lon": 112.9368402201,
    "lat": 35.095049326,
    "address": "北寺街(朱载堉纪念馆西北侧约200米)",
    "固话": null,
    "tel": null
  },
  {
    "省": "河南",
    "市": "焦作",
    "县区": "沁阳市",
    "PoiID": "B0FFGZGOLR",
    "name": "炎帝公园",
    "class1": "风景名胜",
    "class2": "公园广场",
    "class3": "公园",
    "class4": null,
    "lon": 112.9126112319,
    "lat": 35.0795059064,
    "address": "太行大道与新济路交汇处",
    "固话": null,
    "tel": null
  },
  {
    "省": "河南",
    "市": "焦作",
    "县区": "沁阳市",
    "PoiID": "B0FFFDJ198",
    "name": "神农山风景区",
    "class1": "风景名胜",
    "class2": "风景名胜",
    "class3": "国家级景点",
    "class4": null,
    "lon": 112.8465923883,
    "lat": 35.2198267217,
    "address": "西北23公里处的太行山南麓",
    "固话": "0391-5036036",
    "tel": null
  },
  {
    "省": "河南",
    "市": "焦作",
    "县区": "沁阳市",
    "PoiID": "B018700TP9",
    "name": "沁阳市二仙庙景区(暂停营业)",
    "class1": "风景名胜",
    "class2": "风景名胜",
    "class3": "寺庙道观",
    "class4": null,
    "lon": 112.7790160758,
    "lat": 35.2062715399,
    "address": "神农山景区仙神河河口东岸",
    "固话": null,
    "tel": null
  },
  {
    "省": "河南",
    "市": "焦作",
    "县区": "沁阳市",
    "PoiID": "B018700VOC",
    "name": "陈氏祖祠",
    "class1": "风景名胜",
    "class2": "风景名胜",
    "class3": "寺庙道观",
    "class4": null,
    "lon": 112.8667558223,
    "lat": 35.1659993273,
    "address": "文化路",
    "固话": null,
    "tel": null
  },
  {
    "省": "河南",
    "市": "焦作",
    "县区": "沁阳市",
    "PoiID": "B0FFLA9CIN",
    "name": "临川寺(老龙沟)",
    "class1": "风景名胜",
    "class2": "风景名胜",
    "class3": "寺庙道观",
    "class4": null,
    "lon": 112.8014748241,
    "lat": 35.2068204287,
    "address": "紫陵镇紫陵村",
    "固话": null,
    "tel": null
  },
  {
    "省": "河南",
    "市": "焦作",
    "县区": "沁阳市",
    "PoiID": "B0FFKZ3X40",
    "name": "司氏宗祠",
    "class1": "风景名胜",
    "class2": "风景名胜",
    "class3": "风景名胜",
    "class4": null,
    "lon": 112.8123792551,
    "lat": 35.1485954033,
    "address": "沁五线",
    "固话": null,
    "tel": null
  },
  {
    "省": "河南",
    "市": "焦作",
    "县区": "沁阳市",
    "PoiID": "B0G0SS1QDZ",
    "name": "尧圣庙",
    "class1": "风景名胜",
    "class2": "风景名胜",
    "class3": "寺庙道观",
    "class4": null,
    "lon": 112.8242680829,
    "lat": 35.1808033184,
    "address": null,
    "固话": null,
    "tel": null
  },
  {
    "省": "河南",
    "市": "焦作",
    "县区": "沁阳市",
    "PoiID": "B0G3UX6NI2",
    "name": "古镇紫陵",
    "class1": "风景名胜",
    "class2": "风景名胜",
    "class3": "风景名胜",
    "class4": null,
    "lon": 112.791561215,
    "lat": 35.1787666074,
    "address": null,
    "固话": null,
    "tel": null
  },
  {
    "省": "河南",
    "市": "焦作",
    "县区": "沁阳市",
    "PoiID": "B0FFKVV65G",
    "name": "牛氏宗祠",
    "class1": "风景名胜",
    "class2": "风景名胜",
    "class3": "风景名胜",
    "class4": null,
    "lon": 112.7923342751,
    "lat": 35.1707522812,
    "address": "紫陵镇中学隔壁正东方向160米",
    "固话": null,
    "tel": null
  },
  {
    "省": "河南",
    "市": "焦作",
    "县区": "沁阳市",
    "PoiID": "B0FFL9PH21",
    "name": "小西天",
    "class1": "风景名胜",
    "class2": "风景名胜",
    "class3": "风景名胜",
    "class4": null,
    "lon": 112.8001919067,
    "lat": 35.2035436351,
    "address": "紫陵镇紫陵村",
    "固话": null,
    "tel": null
  },
  {
    "省": "河南",
    "市": "焦作",
    "县区": "沁阳市",
    "PoiID": "B0FFJE1VZ4",
    "name": "练何将军广场",
    "class1": "风景名胜",
    "class2": "风景名胜",
    "class3": "风景名胜",
    "class4": null,
    "lon": 112.8144215847,
    "lat": 35.1828587168,
    "address": "赵寨村北侧",
    "固话": null,
    "tel": null
  },
  {
    "省": "河南",
    "市": "焦作",
    "县区": "沁阳市",
    "PoiID": "B0FFJG53AG",
    "name": "练何墓",
    "class1": "风景名胜",
    "class2": "风景名胜",
    "class3": "风景名胜",
    "class4": null,
    "lon": 112.7958541552,
    "lat": 35.2161713919,
    "address": "紫陵镇赵寨村紫金山紫金坛",
    "固话": null,
    "tel": null
  },
  {
    "省": "河南",
    "市": "焦作",
    "县区": "沁阳市",
    "PoiID": "B0FFJIJBCP",
    "name": "练舜麒墓",
    "class1": "风景名胜",
    "class2": "风景名胜",
    "class3": "风景名胜",
    "class4": null,
    "lon": 112.8206944825,
    "lat": 35.2052900033,
    "address": "紫陵镇三尖山",
    "固话": null,
    "tel": null
  },
  {
    "省": "河南",
    "市": "焦作",
    "县区": "沁阳市",
    "PoiID": "B0FFJH7SO7",
    "name": "练友钦墓",
    "class1": "风景名胜",
    "class2": "风景名胜",
    "class3": "风景名胜",
    "class4": null,
    "lon": 112.7974618608,
    "lat": 35.1972715893,
    "address": "紫陵镇芝岭",
    "固话": null,
    "tel": null
  },
  {
    "省": "河南",
    "市": "焦作",
    "县区": "沁阳市",
    "PoiID": "B0FFJZRMJC",
    "name": "紫陵关帝庙",
    "class1": "风景名胜",
    "class2": "风景名胜",
    "class3": "风景名胜",
    "class4": null,
    "lon": 112.7973111784,
    "lat": 35.1729978598,
    "address": "紫陵村紫陵寨",
    "固话": null,
    "tel": null
  },
  {
    "省": "河南",
    "市": "焦作",
    "县区": "沁阳市",
    "PoiID": "B0FFFYLPCP",
    "name": "神农山仙神谷",
    "class1": "风景名胜",
    "class2": "风景名胜",
    "class3": "风景名胜",
    "class4": null,
    "lon": 112.7814658457,
    "lat": 35.1987793742,
    "address": "紫陵镇仙神谷景区",
    "固话": null,
    "tel": null
  },
  {
    "省": "河南",
    "市": "焦作",
    "县区": "沁阳市",
    "PoiID": "B01870MWCB",
    "name": "紫赵遗址",
    "class1": "风景名胜",
    "class2": "风景名胜",
    "class3": "风景名胜",
    "class4": null,
    "lon": 112.8071918178,
    "lat": 35.1731677368,
    "address": null,
    "固话": null,
    "tel": null
  },
  {
    "省": "河南",
    "市": "焦作",
    "县区": "沁阳市",
    "PoiID": "B0G035G033",
    "name": "功德纪事碑",
    "class1": "风景名胜",
    "class2": "风景名胜",
    "class3": "纪念馆",
    "class4": null,
    "lon": 112.8826658288,
    "lat": 35.1753987622,
    "address": null,
    "固话": null,
    "tel": null
  },
  {
    "省": "河南",
    "市": "焦作",
    "县区": "沁阳市",
    "PoiID": "B0FFJE2B99",
    "name": "练何故里",
    "class1": "风景名胜",
    "class2": "风景名胜相关",
    "class3": "旅游景点",
    "class4": null,
    "lon": 112.815004339,
    "lat": 35.186432041,
    "address": "紫陵镇赵寨村",
    "固话": null,
    "tel": null
  },
  {
    "省": "河南",
    "市": "焦作",
    "县区": "沁阳市",
    "PoiID": "B0FFJEA5DC",
    "name": "三尖山",
    "class1": "风景名胜",
    "class2": "风景名胜相关",
    "class3": "旅游景点",
    "class4": null,
    "lon": 112.8222245629,
    "lat": 35.204588604,
    "address": "紫陵镇云阳口东侧",
    "固话": null,
    "tel": null
  },
  {
    "省": "河南",
    "市": "焦作",
    "县区": "沁阳市",
    "PoiID": "B0FFJ7R01Q",
    "name": "祖师庙",
    "class1": "风景名胜",
    "class2": "风景名胜相关",
    "class3": "旅游景点",
    "class4": null,
    "lon": 112.7751470164,
    "lat": 35.1949278735,
    "address": null,
    "固话": null,
    "tel": null
  },
  {
    "省": "河南",
    "市": "焦作",
    "县区": "沁阳市",
    "PoiID": "B018700VOD",
    "name": "靳氏祠堂",
    "class1": "风景名胜",
    "class2": "风景名胜",
    "class3": "纪念馆",
    "class4": null,
    "lon": 112.872969839,
    "lat": 35.1622136878,
    "address": "西向镇向二街",
    "固话": null,
    "tel": null
  },
  {
    "省": "河南",
    "市": "焦作",
    "县区": "沁阳市",
    "PoiID": "B0FFIAKIK6",
    "name": "朱载堉广场",
    "class1": "风景名胜",
    "class2": "公园广场",
    "class3": "城市广场",
    "class4": null,
    "lon": 112.9119643347,
    "lat": 35.0862449457,
    "address": "太行大道与覃怀西路交叉口西南150米",
    "固话": null,
    "tel": null
  },
  {
    "省": "河南",
    "市": "焦作",
    "县区": "沁阳市",
    "PoiID": "B0FFI7UJDI",
    "name": "周庄党群文化广场",
    "class1": "风景名胜",
    "class2": "公园广场",
    "class3": "城市广场",
    "class4": null,
    "lon": 112.9474536479,
    "lat": 35.0768400958,
    "address": "河内东路",
    "固话": null,
    "tel": null
  },
  {
    "省": "河南",
    "市": "焦作",
    "县区": "沁阳市",
    "PoiID": "B018700WCJ",
    "name": "清真寺",
    "class1": "风景名胜",
    "class2": "风景名胜",
    "class3": "回教寺",
    "class4": null,
    "lon": 112.9353961475,
    "lat": 35.0825346979,
    "address": "沁园街道老南关村",
    "固话": null,
    "tel": null
  },
  {
    "省": "河南",
    "市": "焦作",
    "县区": "沁阳市",
    "PoiID": "B0GRT5F9CP",
    "name": "曹瑾纪念馆",
    "class1": "风景名胜",
    "class2": "风景名胜",
    "class3": "纪念馆",
    "class4": null,
    "lon": 112.9370510646,
    "lat": 35.0819463963,
    "address": "南门街",
    "固话": null,
    "tel": null
  },
  {
    "省": "河南",
    "市": "焦作",
    "县区": "沁阳市",
    "PoiID": "B0FFH2DWNY",
    "name": "狼牙壮士宋学义纪念馆",
    "class1": "风景名胜",
    "class2": "风景名胜",
    "class3": "纪念馆",
    "class4": null,
    "lon": 112.8924491747,
    "lat": 35.1030232424,
    "address": "文化路附近第十中学内",
    "固话": null,
    "tel": null
  },
  {
    "省": "河南",
    "市": "焦作",
    "县区": "沁阳市",
    "PoiID": "B0HBBX5WSL",
    "name": "南孔村文化广场",
    "class1": "风景名胜",
    "class2": "公园广场",
    "class3": "城市广场",
    "class4": null,
    "lon": 112.9020377602,
    "lat": 35.106147114,
    "address": null,
    "固话": null,
    "tel": null
  },
  {
    "省": "河南",
    "市": "焦作",
    "县区": "沁阳市",
    "PoiID": "B0FFKXFI59",
    "name": "覃怀苑",
    "class1": "风景名胜",
    "class2": "公园广场",
    "class3": "城市广场",
    "class4": null,
    "lon": 112.9529441619,
    "lat": 35.0894735415,
    "address": "怀府东路",
    "固话": null,
    "tel": null
  },
  {
    "省": "河南",
    "市": "焦作",
    "县区": "沁阳市",
    "PoiID": "B0FFKR52P3",
    "name": "丁庄文体广场",
    "class1": "风景名胜",
    "class2": "公园广场",
    "class3": "城市广场",
    "class4": null,
    "lon": 112.9057045243,
    "lat": 35.0999735377,
    "address": "文化路与适居路交叉路口往东南约150米",
    "固话": null,
    "tel": null
  },